URN,Name,PostCode,Score,Latitude,Longitude
140081,St Mary's Catholic School,NE7 7PE,10,55.0058312,-1.593812
137708,Sacred Heart Catholic High School,NE4 9YH,10,54.982681,-1.657146
108420,Emmanuel College,NE11 0AN,10,54.937237,-1.641175
137852,Cardinal Hume Catholic School,NE9 6RZ,10,54.930937,-1.576827
143583,St Leonard's Catholic School,DH1 4NG,10,54.784141,-1.586647
136451,The Academy at Shotton Hall,SR8 1AU,10,54.748759,-1.3533164
147213,St Francis Xavier School - a Joint Catholic and Church of England Voluntary Academy,DL10 7DA,10,54.409431,-1.7190581
121690,Upper Wharfedale School,BD23 5BS,10,54.073666,-2.014421
136731,Ripley St Thomas Church of England Academy,LA1 4RS,10,54.0397777,-2.8014279
144711,Fulford School,YO10 4FY,10,53.9363877,-1.0643593
136905,Ilkley Grammar School,LS29 8TR,10,53.9219916,-1.8146351
146217,Boston Spa Academy,LS23 6RW,10,53.900102,-1.362004
136390,Clitheroe Royal Grammar School,BB7 2DJ,10,53.874688,-2.388507
108057,Allerton High School,LS17 7AG,10,53.850478,-1.55274
108076,Roundhay School,LS8 1ND,10,53.830729,-1.510666
144743,Dixons Trinity Chapeltown,LS7 4AW,10,53.812082,-1.531583
119759,Broughton High School,PR3 5JJ,10,53.80858,-2.72701
136962,Feversham Girls' Secondary Academy,BD3 0LT,10,53.8057445,-1.7471316
137277,Dixons Kings Academy,BD7 2AN,10,53.791013,-1.788303
140565,The Ruth Gorse Academy,LS10 1HW,10,53.790991,-1.535344
138251,Dixons Trinity Academy,BD5 0BE,10,53.78642,-1.76143
137577,The Farnley Academy,LS12 5EU,10,53.7838869,-1.6190135
144104,St Mary's College,HU6 7TN,10,53.7748348,-0.3623682
143138,Brayton Academy,YO8 9QS,10,53.7737595,-1.0834232
136801,Preston Muslim Girls High School,PR1 5BY,10,53.766465,-2.685124
142585,Cockburn School,LS11 5TT,10,53.7608797,-1.5565442
141971,Eden Boys' School Preston,PR1 4BD,10,53.759777,-2.68489
119765,Penwortham Girls' High School,PR1 0SR,10,53.7481867,-2.7295955
136392,The Morley Academy,LS27 0PD,10,53.74326,-1.601064
138220,Tauheedul Islam Boys' High School,BB2 2LD,10,53.74264,-2.488281
119802,All Hallows Catholic High School,PR1 0LN,10,53.73894,-2.741453
137004,Outwood Academy Foxhills,DN15 8LJ,10,53.5999066,-0.6661855
107769,Holmfirth High School,HD9 7SE,10,53.5830909,-1.7710495
137133,The Blue Coat CofE School,OL1 3SQ,10,53.54608,-2.10773
145894,Laurus Ryecroft,M43 7LJ,10,53.4938387,-2.1335622
141196,Levenshulme High School,M19 1FS,10,53.437262,-2.196055
143729,Didsbury High School,M20 2ET,10,53.430562,-2.24974
140703,Burnage Academy for Boys,M19 1ER,10,53.426839,-2.203455
136498,Sale Grammar School,M33 3NH,10,53.4189866,-2.3143679
138562,King's Leadership Academy Warrington,WA1 4PF,10,53.4016759,-2.53839
104705,Archbishop Blanch CofE High School,L7 6HQ,10,53.3976016,-2.9437912
138464,Loreto Grammar School,WA14 4AH,10,53.38826,-2.357253
137929,Upton Hall School FCJ,CH49 6LJ,10,53.3860507,-3.101086
137289,Altrincham Grammar School for Girls,WA14 2NL,10,53.381212,-2.360471
145893,Laurus Cheadle Hulme,SK8 5GB,10,53.380108,-2.203383
138069,Tapton School,S10 5RG,10,53.3762557,-1.5198811
136458,Altrincham Grammar School for Boys,WA14 2RS,10,53.376134,-2.351259
137843,Cheadle Hulme High School,SK8 7JY,10,53.3642331,-2.1864978
145897,Mercia School,S7 2DY,10,53.352208,-1.493791
138841,King Ecgbert School,S17 3QU,10,53.3208492,-1.5367169
138470,St Mary's Catholic High School,S41 8AG,10,53.2523867,-1.4579584
138743,The County High School,CW9 8EZ,10,53.241617,-2.506157
137667,Kesteven and Sleaford High School Selective Academy,NG34 7RS,10,52.996597,-0.411125
136460,St Joseph's College,ST4 5NT,10,52.987814,-2.19921
138482,Rushcliffe Spencer Academy,NG2 7BW,10,52.917253,-1.123526
138638,Kesteven and Grantham Girls' School,NG31 9AU,10,52.9133362,-0.6338643
120642,Spalding High School,PE11 2PJ,10,52.7833308,-0.1422005
136530,Catmose College,LE15 6RP,10,52.6733703,-0.7407233
148877,Soar Valley College,LE4 7GY,10,52.6612164,-1.1077352
141916,Rushey Mead Academy,LE4 7AN,10,52.658634,-1.11513
138108,The Market Bosworth School,CV13 0JT,10,52.624598,-1.404817
146108,Sir Jonathan North Girls' College,LE2 6FU,10,52.607033,-1.125118
140188,Hethersett Academy,NR9 3DB,10,52.599129,1.182129
140798,Wolverhampton Girls' High School,WV6 0BY,10,52.591019,-2.155865
136777,Queen Mary's High School,WS4 2AE,10,52.589798,-1.975911
136398,The King's (The Cathedral) School,PE1 2UE,10,52.5814137,-0.2389728
136773,Queen Mary's Grammar School,WS1 2PG,10,52.5770104,-1.9650169
136187,Ormiston Venture Academy,NR31 7JJ,10,52.5696364,1.7064202
137988,Bishop Vesey's Grammar School,B74 2NH,10,52.569018,-1.821995
137767,Higham Lane School,CV10 0BJ,10,52.533082,-1.455449
141969,Eden Boys' School,B42 2SY,10,52.516898,-1.895485
138586,Nishkam High School,B19 2LF,10,52.495536,-1.9064911
145878,Eden Boys' Leadership Academy,B8 3DT,10,52.487846,-1.842419
139043,Bristnall Hall Academy,B68 9PA,10,52.4843367,-1.9932672
103531,St Paul's School for Girls,B16 9SL,10,52.4757102,-1.9406213
147201,Eden Girls'  Leadership Academy,B10 9HH,10,52.471595,-1.8305216
137044,King Edward VI Camp Hill School for Girls,B14 7QJ,10,52.431088,-1.902281
137045,King Edward VI Camp Hill School for Boys,B14 7QJ,10,52.431088,-1.902281
136590,Kings Norton Girls' School,B30 1HW,10,52.4213873,-1.9350039
140958,Eden Girls' School,CV1 4FS,10,52.4140662,-1.506722
136310,Tudor Grange Academy,B91 3PD,10,52.404546,-1.793979
141277,Lawrence Sheriff School,CV21 3AG,10,52.3706495,-1.2554977
136610,Soham Village College,CB7 5AA,10,52.3294338,0.3392404
136580,Swavesey Village College,CB24 4RS,10,52.294885,-0.005545
134814,Northampton Academy,NN3 8NH,10,52.2575659,-0.8307132
136299,Northampton School for Boys,NN1 5RT,10,52.2375823,-0.8659638
136622,Alcester Grammar School,B49 5ED,10,52.218184,-1.874718
136887,Chesterton Community College,CB4 3NY,10,52.21793,0.120784
142869,Wootton Park School,NN4 0JA,10,52.211079,-0.895842
136636,Parkside Community College,CB1 1EH,10,52.204433,0.128514
137924,St Bede's Inter-Church School,CB1 3TD,10,52.1914988,0.1613609
137302,King Edward VI School,CV37 6BE,10,52.190524,-1.705092
137235,Stratford Girls' Grammar School,CV37 9HA,10,52.1901503,-1.7242214
138228,Bedford Free School,MK42 9AD,10,52.1324426,-0.4673066
139154,Hitchin Boys' School,SG5 1JB,10,51.9516706,-0.2788967
137288,Hitchin Girls' School,SG4 9RS,10,51.947938,-0.269435
136353,Pate's Grammar School,GL51 0HG,10,51.9057825,-2.1172346
144312,Challney High School for Girls,LU4 9FJ,10,51.899506,-0.466461
136651,Challney High School for Boys,LU4 9TJ,10,51.894951,-0.467368
136319,Denbigh High School,LU3 1HE,10,51.89142,-0.424008
137515,Colchester County High School for Girls,CO3 3US,10,51.8850339,0.874685
136474,Balcarras School,GL53 8QF,10,51.881345,-2.044205
140786,The Hertfordshire & Essex High School and Science College,CM23 5NJ,10,51.867744,0.171104
137355,Waddesdon Church of England School,HP18 0LQ,10,51.844309,-0.923135
136578,The Crypt School,GL2 5AE,10,51.839329,-2.251992
137270,Sir John Lawes School,AL5 4QP,10,51.822667,-0.345964
138356,St George's School,AL5 4TD,10,51.822047,-0.353633
136973,Roundwood Park School,AL5 3AE,10,51.8199815,-0.3743192
137090,The Chauncy School,SG12 0DP,10,51.81489,-0.045381
136884,Aylesbury Grammar School,HP21 7RP,10,51.813976,-0.801486
136846,Aylesbury High School,HP21 7SX,10,51.812095,-0.802232
137985,Presdales School,SG12 9NX,10,51.8026366,-0.0308514
137919,Bartholomew School,OX29 4AP,10,51.7828606,-1.3796411
137970,The Cherwell School,OX2 7EE,10,51.774989,-1.26144
136609,Sandringham School,AL4 9NX,10,51.770763,-0.307831
137339,St Albans Girls' School,AL3 6DB,10,51.7703845,-0.3315026
145916,The Beaulieu Park School,CM1 6DT,10,51.761159,0.496891
138286,Beaumont School,AL4 0XB,10,51.7553498,-0.2987
138106,Loreto College,AL1 3RQ,10,51.752864,-0.329493
137938,Nicholas Breakspear Catholic School,AL4 0TT,10,51.7470708,-0.2894318
136874,Stroud High School,GL5 4HF,10,51.7462983,-2.2298286
136412,Chelmsford County High School for Girls,CM1 1RW,10,51.74305,0.467401
136642,King Edward VI Grammar School,CM1 3SX,10,51.740185,0.4649299
137091,Chesham Grammar School,HP5 1BA,10,51.708834,-0.600223
136899,Parmiter's School,WD25 0UU,10,51.703444,-0.3901592
136554,Dame Alice Owen's School,EN6 2DU,10,51.690846,-0.206859
136419,Dr Challoner's Grammar School,HP6 5HA,10,51.676068,-0.610496
137219,Dr Challoner's High School,HP7 9QB,10,51.6677191,-0.5718866
136901,St Clement Danes School,WD3 6EW,10,51.663536,-0.51407
136290,Queen Elizabeth's School,EN5 4DQ,10,51.6558478,-0.2131189
136276,Watford Grammar School for Boys,WD18 7JF,10,51.65502,-0.414324
136289,Watford Grammar School for Girls,WD18 0AE,10,51.6519091,-0.3972296
147061,Ark Pioneer Academy,EN5 2BE,10,51.647157,-0.19166
136723,Wycombe High School,HP11 1TB,10,51.618498,-0.764984
137178,Bentley Wood High School,HA7 3JW,10,51.617438,-0.335198
136771,John Hampden Grammar School,HP11 1SZ,10,51.617091,-0.764546
102053,St Anne's Catholic High School for Girls,N13 5TY,10,51.616304,-0.107992
101361,St Michael's Catholic Grammar School,N12 7NJ,10,51.6144507,-0.1809188
135507,Wren Academy Finchley,N12 9HB,10,51.612667,-0.168218
136418,The Compton School,N12 0QG,10,51.608545,-0.161047
138490,Didcot Girls' School,OX11 7AJ,10,51.607229,-1.253916
140893,Beaconsfield High School,HP9 1RR,10,51.6042354,-0.645141
137829,Northwood School,HA6 1QN,10,51.6021573,-0.4083003
137531,Alexandra Park School,N11 2AZ,10,51.602144,-0.136263
137028,Nower Hill High School,HA5 5RP,10,51.5922618,-0.3659528
140935,Harris Academy Tottenham,N17 9LN,10,51.591865,-0.060113
139594,The Archer Academy,N2 8GA,10,51.591299,-0.1695704
136656,Claremont High School,HA3 0UH,10,51.585163,-0.293328
142560,St Gregory's Catholic Science College,HA3 0NB,10,51.5837261,-0.3048416
142864,Pinner High School,HA5 1NB,10,51.5793805,-0.388666
102857,Valentines High School,IG2 6HX,10,51.574266,0.066774
102239,Whitmore High School,HA2 0AD,10,51.573596,-0.35287
136781,Sir William Borlase's Grammar School,SL7 2BR,10,51.571253,-0.7821233
102856,Seven Kings School,IG2 7BT,10,51.5684983,0.0864421
140748,Ruislip High School,HA4 0BY,10,51.564737,-0.408132
101247,All Saints Catholic School and Technology College,RM8 1JT,10,51.562827,0.15131
140862,Michaela Community School,HA9 0UU,10,51.562335,-0.278169
138518,Ark Isaac Newton Academy,IG1 1FY,10,51.5608671,0.0922986
100050,Parliament Hill School,NW5 1RL,10,51.558445,-0.149649
137233,Sacred Heart of Mary Girls' School,RM14 2QR,10,51.5561351,0.2432659
137442,Clapton Girls' Academy,E5 0RB,10,51.554715,-0.051982
136443,Southend High School for Boys,SS0 0RG,10,51.553402,0.6969891
136272,Westcliff High School for Boys Academy,SS0 0BP,10,51.552954,0.669407
136490,Westcliff High School for Girls,SS0 0BS,10,51.552409,0.667702
140475,Loxford School,IG1 2UT,10,51.549826,0.087531
143274,Forest Gate Community School,E7 9BB,10,51.54936,0.022157
136444,Southend High School for Girls,SS2 4UZ,10,51.542117,0.745359
140210,Mossbourne Victoria Park Academy,E9 7HD,10,51.538446,-0.043794
139725,William Perkin Church of England High School,UB6 8PR,10,51.5380464,-0.3517062
139369,St George's Catholic School,W9 1RB,10,51.5328604,-0.1874862
140962,Goresbrook School,RM9 6XW,10,51.532449,0.130713
137921,Gillotts School,RG9 1PS,10,51.525966,-0.923114
130912,Paddington Academy,W9 2DR,10,51.52535,-0.192148
101934,The Cardinal Wiseman Catholic School,UB6 9AW,10,51.5253128,-0.3513514
100458,Central Foundation Boys' School,EC2A 4SH,10,51.5249948,-0.0858182
142357,Newlands Girls' School,SL6 5JB,10,51.5223325,-0.7595006
137353,The St Marylebone CofE School,W1U 5BA,10,51.5221192,-0.152065
136669,Brampton Manor Academy,E6 3SQ,10,51.5216957,0.0435518
139791,Riverside School,IG11 0FU,10,51.521665,0.118418
135242,Ark King Solomon Academy,NW1 6RX,10,51.521572,-0.169281
100973,Swanlea School,E1 5DJ,10,51.520741,-0.060078
100503,All Saints Catholic College,W10 6EL,10,51.5206694,-0.2140512
137726,Herschel Grammar School,SL1 3BW,10,51.5199753,-0.6112336
101941,The Ellen Wilkinson School for Girls,W3 0HW,10,51.5167152,-0.2862552
100977,Stepney All Saints Church of England Secondary School,E1 0RH,10,51.516251,-0.044212
143629,Mulberry School for Girls,E1 2JP,10,51.5138302,-0.0598555
141970,Eden Girls' School,SL1 4AA,10,51.5137263,-0.6192874
143129,Phoenix Academy,W12 0RQ,10,51.513161,-0.237898
101928,Villiers High School,UB1 3BT,10,51.510162,-0.373345
137546,Twyford Church of England High School,W3 9PP,10,51.509193,-0.281384
110084,St Bernard's Catholic Grammar School,SL3 7AF,10,51.506116,-0.573749
136420,Upton Court Grammar School,SL3 7PR,10,51.5049609,-0.5783575
141931,The Cardinal Vaughan Memorial RC School,W14 8BZ,10,51.5038283,-0.2117899
137729,Featherstone High School,UB2 5HF,10,51.499625,-0.386514
136521,Langley Grammar School,SL3 7QS,10,51.4982755,-0.5525405
139659,Oasis Academy South Bank,SE1 7HS,10,51.4982316,-0.1117233
138313,The Grey Coat Hospital,SW1P 2DY,10,51.496032,-0.134529
137935,Sacred Heart High School,W6 7DG,10,51.493571,-0.223355
131747,Harris Academy Bermondsey,SE16 3TZ,10,51.4931989,-0.0718544
102545,Gunnersbury Catholic School,TW8 9LB,10,51.492346,-0.316366
137157,The London Oratory School,SW6 1RX,10,51.486225,-0.196192
139720,Nishkam School West London,TW7 5PN,10,51.48525,-0.337137
137549,Harris Academy Chafford Hundred,RM16 6SA,10,51.481964,0.293129
138960,Sacred Heart Catholic School,SE5 0RP,10,51.476288,-0.098945
138607,Lady Margaret School,SW6 4UN,10,51.474182,-0.199643
138245,Ark Greenwich Free School,SE18 4LH,10,51.4720456,0.0524968
100857,The St Thomas the Apostle College,SE15 2EB,10,51.471233,-0.05658
137995,St Mark's Catholic School,TW3 3EJ,10,51.4681619,-0.3742714
141617,The Hurlingham Academy,SW6 3ED,10,51.4676248,-0.196178
100750,Prendergast School,SE4 1LE,10,51.458059,-0.02753
135316,Ashcroft Technology Academy,SW15 2UT,10,51.4565304,-0.2075577
136298,The Charter School North Dulwich,SE24 9JH,10,51.456411,-0.089292
135816,Harris Boys' Academy East Dulwich,SE22 0AT,10,51.4563541,-0.0652952
138267,Ark Bolingbroke Academy,SW11 6BF,10,51.4562747,-0.1681636
136448,Kendrick School,RG1 5BN,10,51.4514892,-0.964499
137769,Townley Grammar School,DA6 7AB,10,51.4508993,0.1401045
141963,Turing House School,TW2 6LH,10,51.449711,-0.367111
138651,Orleans Park School,TW1 3BB,10,51.4494916,-0.320313
136449,Reading School,RG1 5LW,10,51.448379,-0.954411
149297,St Richard Reynolds Catholic High School,TW1 4LT,10,51.4478619,-0.3350142
136359,Dartford Grammar School,DA1 2HW,10,51.4449141,0.2052733
138266,Reach Academy Feltham,TW13 4AB,10,51.443553,-0.411155
144100,Dartford Grammar School for Girls,DA1 2NT,10,51.4428755,0.2035934
138461,Waldegrave School,TW2 5LH,10,51.4395559,-0.3523924
138825,Grey Court School,TW10 7HN,10,51.4381885,-0.3113116
136637,Maiden Erlegh School,RG6 7HS,10,51.43728,-0.925243
136309,Kingsdale Foundation School,SE21 8SQ,10,51.4323633,-0.0845399
102673,Ricards Lodge High School,SW19 7HB,10,51.428148,-0.206046
136615,The Tiffin Girls' School,KT2 5PL,10,51.425571,-0.302934
100638,Bishop Thomas Grant Catholic Secondary School,SW16 2HY,10,51.424972,-0.118739
141862,The Kingston Academy,KT2 5PE,10,51.4236201,-0.301889
137005,Graveney School,SW17 9BU,10,51.423246,-0.151533
137379,Harris Girls Academy Bromley,BR3 1QR,10,51.4162018,-0.0417119
136880,The Holt School,RG41 1EE,10,51.4160173,-0.8410907
145860,Harris Academy Wimbledon,SW19 2JY,10,51.4135819,-0.1892846
149290,St Paul's Catholic College,TW16 6JE,10,51.412278,-0.413828
137267,Ranelagh School,RG12 9DA,10,51.410864,-0.745308
102679,Rutlish School,SW20 9AD,10,51.409356,-0.208594
134003,St Mark's Church of England Academy,CR4 1SF,10,51.406286,-0.154402
131897,Harris Academy Merton,CR4 1BP,10,51.402527,-0.1345935
137299,Richard Challoner School,KT3 5PE,10,51.385142,-0.264382
143367,Salesian School,KT16 9LU,10,51.381951,-0.517719
136337,Fort Pitt Grammar School,ME4 6TJ,10,51.380714,0.514673
137855,Hinchley Wood School,KT10 0AQ,10,51.378597,-0.331916
137060,Tolworth Girls' School and Sixth Form,KT6 7EY,10,51.37518,-0.29253
136662,Sir Joseph Williamson's Mathematical School,ME1 3EL,10,51.370265,0.498654
136798,Wallington County Grammar School,SM6 7PH,10,51.369019,-0.149192
101676,St Olave's and St Saviour's Grammar School,BR6 9SH,10,51.36685,0.104052
136551,Newstead Wood School,BR6 9SA,10,51.36678,0.074196
136621,Wilson's School,SM6 9JW,10,51.3592036,-0.1271632
143706,Harris Academy Sutton,SM2 5RD,10,51.3471219,-0.1938634
139151,Gordon's School,GU24 9PT,10,51.3424977,-0.6459896
137736,Rosebery School,KT18 7NQ,10,51.327952,-0.277905
143369,St John the Baptist Catholic Comprehensive School,GU22 9AL,10,51.308097,-0.549495
125275,St Andrew's Catholic School,KT22 7JP,10,51.301995,-0.315357
118836,Maidstone Grammar School for Girls,ME16 0SF,10,51.2806587,0.5123444
136582,Invicta Grammar School,ME14 5DS,10,51.274595,0.53689
125278,St Bede's School,RH1 2LQ,10,51.250199,-0.175103
147430,St Peter's Catholic School,GU1 2TN,10,51.2466682,-0.5373033
125315,All Hallows Catholic School,GU9 9HF,10,51.234589,-0.772521
139193,Guildford County School,GU2 4LU,10,51.2343291,-0.5847881
118843,The Judd School,TN9 2PN,10,51.1884277,0.2634197
136417,Tonbridge Grammar School,TN9 2JR,10,51.1837115,0.2756837
136379,Highworth Grammar School,TN24 8UD,10,51.1547611,0.8643403
118789,Tunbridge Wells Girls' Grammar School,TN4 9UJ,10,51.1451053,0.2582203
136603,Bennett Memorial Diocesan School,TN4 9SH,10,51.1427834,0.2465137
116407,The Westgate School,SO22 5AZ,10,51.0676804,-1.3308067
136500,Bishop Wordsworth's Church of England Grammar School,SP1 2ED,10,51.0648886,-1.7948028
137982,Beacon Academy,TN6 2AS,10,51.0552252,0.1718904
136916,The Castle School,TA1 5AU,10,51.01696,-3.11796
148753,St Paul's Catholic College,RH15 8GA,10,50.9671649,-0.1555964
116507,Saint George Catholic Voluntary Aided College Southampton,SO16 3DQ,10,50.9456,-1.383509
138476,St Anne's Catholic School,SO15 2WZ,10,50.914871,-1.405821
114611,Cardinal Newman Catholic School,BN3 6ND,10,50.836811,-0.158368
135962,Shoreham Academy,BN43 6YT,10,50.8361796,-0.247331
144243,St Philip Howard Catholic School,PO22 0EN,10,50.833628,-0.644954
116505,St Edmund's Catholic School,PO1 1RX,10,50.7992675,-1.0853203
136996,Bournemouth School for Girls,BH8 9UJ,10,50.750782,-1.85284
137452,Bournemouth School,BH8 9PY,10,50.7486098,-1.8586159
140008,Glenmoor Academy,BH10 4EX,10,50.748359,-1.889431
140007,Winton Academy,BH10 4HT,10,50.74716,-1.89108
136366,Colyton Grammar School,EX24 6HN,10,50.7289436,-3.0750879
140957,Eden Girls' School Waltham Forest,E17 5SD,10,51.59438,-0.04178
141565,Tauheedul Islam Girls' High School,BB2 7AD,10,53.75399,-2.51318
147670,Sedgefield Community College,TS21 3DD,9,54.657413,-1.443189
136902,Keswick School,CA12 5QB,9,54.6080737,-3.1482098
144496,Teesdale School and Sixth Form,DL12 8HH,9,54.550028,-1.913115
137622,Carmel College,DL3 8RW,9,54.524179,-1.585908
148377,Ryedale School,YO62 7SL,9,54.250664,-0.995775
144976,Outwood Academy Easingwold,YO61 3EF,9,54.1152463,-1.1931148
136497,Harrogate Grammar School,HG2 0DZ,9,53.98338,-1.547399
136617,Archbishop Holgate's School,YO10 5ZA,9,53.952356,-1.041082
149517,All Saints Catholic School York,YO24 1BJ,9,53.951185,-1.0943747
137704,Otley Prince Henry's Grammar School Specialist Language College,LS21 2BB,9,53.9125309,-1.6944857
139351,St. Mary's Menston,LS29 6AE,9,53.8820257,-1.7272327
139975,Beckfoot School,BD16 1EE,9,53.8410256,-1.828152
147100,Carlton Bolling,BD3 0DU,9,53.79803,-1.742453
136343,Garforth Academy,LS25 1LJ,9,53.787995,-1.391956
130909,Dixons City Academy,BD5 7RR,9,53.780582,-1.757185
137424,Batley Girls' High School,WF17 0LD,9,53.7319148,-1.6455591
136633,Castleford Academy,WF10 4JQ,9,53.7253422,-1.3446509
145579,Trinity Academy Cathedral,WF2 8QF,9,53.6704717,-1.5166521
137500,Moor End Academy,HD4 5JA,9,53.6297368,-1.8086088
140959,Eden Boys' School,BL1 3QE,9,53.593164,-2.435005
137899,Hungerhill School,DN3 2JY,9,53.5526953,-1.0748217
106270,St Damian's RC Science College,OL6 8BH,9,53.5101044,-2.0754368
146239,Wright Robinson College,M18 8RL,9,53.4666168,-2.1512994
139686,Liverpool College,L18 8BG,9,53.38169,-2.92508
139368,Wade Deacon High School,WA8 7TD,9,53.3758157,-2.7352764
137171,Wirral Grammar School for Girls,CH63 3AF,9,53.34884,-3.0146799
136724,Fernwood School,NG8 2FT,9,52.9539579,-1.2280356
135120,Landau Forte College,DE1 2LF,9,52.927171,-1.473246
136194,The Priory Ruskin Academy,NG31 8ED,9,52.9240304,-0.6419767
136628,The West Bridgford School,NG2 7FA,9,52.9176438,-1.1386255
146235,Blessed Robert Sutton Catholic Voluntary Academy,DE15 9SD,9,52.787015,-1.616132
136323,John Taylor High School,DE13 8AZ,9,52.7660392,-1.7169166
136516,Newport Girls' High School Academy,TF10 7HL,9,52.763143,-2.3818694
140815,Jane Austen College,NR3 1DD,9,52.632845,1.293606
137730,Heath Park,WV11 1RD,9,52.6004497,-2.0986448
138155,Gartree High School,LE2 5TQ,9,52.587605,-1.07425
138098,Moseley Park,WV14 6LU,9,52.5760312,-2.0726005
136481,Wymondham College,NR18 9SZ,9,52.5441984,1.0592878
138937,King Edward VI Handsworth Wood Girls' Academy,B20 2HL,9,52.5146301,-1.9286799
137047,King Edward VI Handsworth School,B21 9AR,9,52.5023784,-1.9228942
136882,Aston Manor Academy,B6 4PZ,9,52.496409,-1.891075
140248,President Kennedy School Academy,CV6 4GL,9,52.449053,-1.520483
103514,Swanshurst School,B13 0TW,9,52.4295942,-1.8746715
142339,Barr's Hill School,CV1 4BU,9,52.4153527,-1.5168688
148094,St Peter's Catholic School,B91 3NZ,9,52.405436,-1.78886
136963,Finham Park School,CV3 6EA,9,52.3825351,-1.5279678
146697,Kenilworth School and Sixth Form,CV8 2AL,9,52.341327,-1.555446
136786,Studley High School,B80 7QX,9,52.2690547,-1.8973176
139408,Cambourne Village College,CB23 6FR,9,52.2227872,-0.0846547
136463,Comberton Village College,CB23 7DU,9,52.184735,0.010441
136488,Sponne School,NN12 6DJ,9,52.1331993,-0.9946098
140868,Fairfield High School,HR2 0SG,9,52.037592,-2.955675
136776,Saffron Walden County High School,CB11 4UH,9,52.0159664,0.2312377
137926,The Gilberd School,CO4 9PU,9,51.916025,0.916883
136292,The Cotswold Academy,GL54 2BD,9,51.888899,-1.7616675
117577,The Bishop's Stortford High School,CM23 4SH,9,51.8503381,0.1524309
136845,Sir Henry Floyd Grammar School,HP21 8PE,9,51.8126048,-0.8227491
140294,Simon Balle All-Through School,SG13 8AJ,9,51.7928775,-0.0690449
137757,Bishop's Hatfield Girls' School,AL10 8NL,9,51.758852,-0.226306
132256,Highlands School,N21 1QQ,9,51.648727,-0.108134
136606,Rickmansworth School,WD3 3AQ,9,51.643852,-0.455631
138239,Becket Keys Church of England Free School,CM15 9DA,9,51.6279331,0.3012593
139362,St Thomas More Catholic School,N22 5HN,9,51.604294,-0.107499
102854,Woodbridge High School,IG8 7DQ,9,51.600967,0.0332
146245,The Sacred Heart Language College,HA3 7AY,9,51.5994374,-0.3360499
137396,Redden Court School,RM3 0TS,9,51.5866845,0.2320802
137308,Malmesbury School,SN16 0DF,9,51.5859671,-2.110044
103103,Walthamstow School for Girls,E17 9RZ,9,51.5847391,-0.0134045
141178,The Warren School,RM6 6SB,9,51.5774937,0.1420556
135600,Ark Academy,HA9 9JR,9,51.565153,-0.278876
137197,Hall Mead School,RM14 1SF,9,51.564577,0.2620437
137284,The Eastwood Academy,SS9 5UU,9,51.5636633,0.6636876
138457,Wembley High Technology College,HA0 3NT,9,51.563361,-0.307742
137635,Vyners School,UB10 8AB,9,51.5586442,-0.4621668
100455,Highbury Fields School,N5 1AR,9,51.552803,-0.101526
141019,Ark Elvin Academy,HA9 7DU,9,51.552244,-0.290998
134693,Mossbourne Community Academy,E5 8JY,9,51.5514459,-0.0620398
134314,St Mary Magdalene Academy,N7 8PG,9,51.5469927,-0.1105522
102786,St Angela's Ursuline School,E7 8HU,9,51.5421995,0.029157
133561,Jo Richardson Community School,RM9 4UN,9,51.533334,0.126459
100457,Elizabeth Garrett Anderson School,N1 9QG,9,51.5330491,-0.1133881
137844,Barnhill Community High School,UB4 9LE,9,51.53041,-0.39889
145724,Ada Lovelace Church of England High School,W5 2JX,9,51.5191444,-0.2930264
137221,Drayton Manor High School,W7 1EU,9,51.515904,-0.335856
147537,Harris Academy Ockendon,RM15 5AY,9,51.512534,0.276879
131310,Elthorne Park High School,W7 2AH,9,51.5001121,-0.3298063
138961,St Michael's Catholic College,SE16 4UN,9,51.499713,-0.067457
140985,Harris Academy Battersea,SW11 5AP,9,51.473244,-0.15952
132711,Harris Girls' Academy East Dulwich,SE22 0NR,9,51.4570298,-0.0549959
136369,Bexley Grammar School,DA16 2BL,9,51.456526,0.107094
137009,Rivers Academy West London,TW14 9PE,9,51.452919,-0.420854
109327,St Mary Redcliffe and Temple School,BS1 6RT,9,51.446007,-2.587695
137834,Mayfield Grammar School,DA11 0JE,9,51.4388705,0.3610336
136205,Wilmington Academy,DA2 7DR,9,51.428589,0.192141
100752,Bonus Pastor Catholic College,BR1 5PZ,9,51.427893,-0.0009706
138623,St John's Marlborough,SN8 4AX,9,51.414307,-1.729392
135311,Harris City Academy Crystal Palace,SE19 2JH,9,51.411916,-0.0773497
137121,Harris Academy Beckenham,BR3 3SJ,9,51.4005,-0.026758
138495,Harris Academy Morden,SM4 6DU,9,51.3920095,-0.1794741
137465,St Bartholomew's School,RG14 6JP,9,51.391848,-1.333927
145244,Edgbarrow School,RG45 7HZ,9,51.3622204,-0.7927616
136534,Glyn School,KT17 1NB,9,51.343371,-0.255833
140117,Tomlinscote School,GU16 8PY,9,51.3199623,-0.7244098
118884,Simon Langton Grammar School for Boys,CT4 7AS,9,51.2613702,1.0840492
137263,Hazelwick School,RH10 1SX,9,51.1262243,-0.1644336
138480,The Harvey Grammar School,CT19 5JY,9,51.0866954,1.1575735
126064,Tanbridge House School,RH12 1SR,9,51.065375,-0.352513
136903,The Petersfield School,GU32 3LU,9,51.000035,-0.940249
114590,Uckfield  College,TN22 3DJ,9,50.973935,0.1027548
116469,Cantell School,SO16 3GJ,9,50.9407388,-1.3967944
136287,Uffculme School,EX15 3AG,9,50.907939,-3.332633
140472,Bishop Luffa School,PO19 3HP,9,50.8377246,-0.7982264
126093,Davison Church of England High School for Girls,BN11 2JX,9,50.819412,-0.356593
138473,Seaford Head School,BN25 4LX,9,50.7705143,0.1179893
136673,The King's School,EX11 1RA,9,50.750335,-3.292672
136368,Parkstone Grammar School,BH17 7EP,9,50.7454366,-1.9872838
147467,Avonbourne Boys' Academy,BH7 6NZ,9,50.73897,-1.82723
138193,Avonbourne Girls Academy,BH7 6NY,9,50.73857,-1.82755
136506,Torquay Girls Grammar School,TQ2 7DY,9,50.4758738,-3.5532146
136573,Penrice Academy,PL25 3NR,9,50.3351576,-4.7708537
136572,The Roseland Academy,TR2 5SE,9,50.272824,-4.899919
139658,Kings Priory School,NE30 4RF,8,55.017871,-1.427479
147894,Tanfield School,DH9 8AY,8,54.8766579,-1.7071397
114312,Durham Johnston Comprehensive School,DH1 4SU,8,54.779772,-1.59686
139405,Dyke House Sports and Technology College,TS24 8NQ,8,54.6970386,-1.2180995
141399,Outwood Academy Bydales,TS11 6AR,8,54.5986693,-1.0243905
136146,North Shore Academy,TS20 2AY,8,54.5758808,-1.3084485
147541,Freebrough Academy,TS12 2SJ,8,54.569254,-0.946322
139673,The Grangefield Academy,TS18 4LE,8,54.5657585,-1.3424908
143063,Egglescliffe School,TS16 0LA,8,54.524458,-1.376353
139606,All Saints Church of England Academy,TS17 5BL,8,54.518585,-1.319947
112384,John Ruskin School,LA21 8EW,8,54.367261,-3.074584
143288,Scalby School,YO12 6TH,8,54.292843,-0.435345
121694,Ripon Grammar School,HG4 2DG,8,54.139021,-1.5369739
136742,Lancaster Royal Grammar School,LA1 3EF,8,54.04719,-2.790123
136381,Lancaster Girls' Grammar School,LA1 1SF,8,54.0458519,-2.8027178
121673,Huntington School,YO32 9WT,8,53.990106,-1.0634804
137139,St Aidan's Church of England High School,HG2 8JR,8,53.9864885,-1.5265721
148855,St John Fisher Catholic Academy,HG2 8PT,8,53.983937,-1.517983
121716,Ermysted's Grammar School,BD23 1PL,8,53.9637627,-2.0224072
118072,Beverley High School,HU17 9EX,8,53.8467272,-0.4304639
108095,Cardinal Heenan Catholic High School,LS6 4QE,8,53.838641,-1.560515
108059,Carr Manor Community School,LS17 5DJ,8,53.835135,-1.550477
137083,Abbey Grange Church of England Academy,LS16 5EA,8,53.833956,-1.60856
136995,Beverley Grammar School,HU17 8NF,8,53.8333031,-0.4393758
146198,Dixons Cottingley Academy,BD16 1TZ,8,53.831408,-1.819736
139118,Kingswood Academy,HU7 4WR,8,53.799034,-0.327395
147204,Eden Boys' Leadership Academy,BD8 9AR,8,53.797823,-1.783566
108097,Mount St Mary's Catholic High School,LS9 8LA,8,53.7932671,-1.5264742
145819,Sherburn High School,LS25 6AS,8,53.7898353,-1.2570647
119780,Corpus Christi Catholic High School,PR2 8QY,8,53.785815,-2.707067
142088,Pleckgate High School,BB1 8QA,8,53.7675316,-2.4864708
136094,Trinity Academy Halifax,HX2 9TZ,8,53.753905,-1.8772482
148527,Oulton Academy,LS26 8EX,8,53.7374544,-1.4596708
145929,Goole Academy,DN14 6AN,8,53.7085018,-0.882958
136283,Heckmondwike Grammar School,WF16 0AH,8,53.707685,-1.669163
138006,De Lacy Academy,WF11 0BZ,8,53.704444,-1.242309
137296,Bishop Rawstorne Church of England Academy,PR26 9HH,8,53.661755,-2.767473
136893,St Michael's Church of England High School,PR7 1RS,8,53.6617355,-2.6363248
119803,Holy Cross Catholic High School,PR7 3LS,8,53.6368238,-2.6302857
142232,Sharples School,BL1 8SN,8,53.607078,-2.4250709
135770,Essa Academy,BL3 3HH,8,53.5563924,-2.4472028
136135,Kearsley Academy,BL4 8HY,8,53.539525,-2.386182
137842,Hall Cross Academy,DN1 2HY,8,53.522747,-1.124493
144744,Eden Boys' Leadership Academy,M8 8DT,8,53.498373,-2.230479
144745,Eden Girls' Leadership Academy,M8 8DT,8,53.498373,-2.230479
136350,Caistor Grammar School,LN7 6QJ,8,53.496569,-0.320237
136672,The Hayfield School,DN9 3HG,8,53.491764,-1.023422
106525,Golborne High School,WA3 3EL,8,53.480676,-2.587808
136593,Fairfield High School for Girls,M43 6AB,8,53.4742362,-2.1519491
131880,St Peter's RC High School,M12 4WB,8,53.459491,-2.195751
136297,Urmston Grammar Academy,M41 5UG,8,53.4510549,-2.3606383
141264,Whalley Range 11-18 High School,M16 8GW,8,53.44274,-2.247011
106368,Stretford Grammar School,M32 8JB,8,53.4426875,-2.2980982
104703,King David High School,L15 6WU,8,53.39609,-2.90328
136377,Wellington School,WA15 7RH,8,53.3938253,-2.333693
137916,The Blue Coat School,L15 9EE,8,53.3927384,-2.9155914
135174,The Belvedere Academy,L8 3TF,8,53.384874,-2.957125
138732,Lymm High School,WA13 0RB,8,53.378687,-2.459498
138361,Notre Dame High School,S10 3BT,8,53.372727,-1.51713
138134,Saint Ambrose College,WA15 0HE,8,53.3702772,-2.3181722
145455,High Storrs School,S11 7LH,8,53.3576933,-1.5244964
139167,Silverdale School,S11 9QH,8,53.3511667,-1.529171
136278,The Fallibroome Academy,SK10 4AF,8,53.2687358,-2.1626027
111424,Bishop Heber High School,SY14 8JD,8,53.027799,-2.761581
137606,Heanor Gate Spencer Academy,DE75 7RA,8,53.011039,-1.370939
136361,Redhill Academy,NG5 8GX,8,53.00992,-1.130477
138729,Painsley Catholic College,ST10 1LH,8,52.981715,-1.989369
137184,Nottingham Girls' Academy,NG8 3LD,8,52.963909,-1.200286
145146,Bluecoat Wollaton Academy,NG8 1EA,8,52.952964,-1.195531
137166,The King's School,NG31 6RP,8,52.9157957,-0.6414845
136479,Charles Read Academy,NG33 4NT,8,52.8090533,-0.5145949
137572,Bourne Academy,PE10 9DT,8,52.773324,-0.369219
138298,De Lisle College Loughborough Leicestershire,LE11 4SQ,8,52.770027,-1.23956
137793,Bourne Grammar School,PE10 9JE,8,52.762348,-0.3756518
146907,The Friary School,WS13 7EW,8,52.6953324,-1.8480081
136266,Arthur Mellows Village College,PE6 7JX,8,52.6369488,-0.3009923
147068,Castle Mead Academy,LE3 5QT,8,52.636112,-1.145597
129645,Madani Girls' School,LE5 5LL,8,52.6264656,-1.1000086
137913,Notre Dame High School,NR1 3PB,8,52.623005,1.296857
142059,Hewett Academy,NR1 2PL,8,52.6125864,1.2902638
137120,Manor High School,LE2 4FU,8,52.602995,-1.0596442
110907,St John Fisher Catholic High School,PE1 5JN,8,52.5810688,-0.2226348
138290,Saint Martin's Catholic Voluntary Academy,CV13 6BF,8,52.5708306,-1.3990544
137949,Wayland Academy,IP25 6BA,8,52.567054,0.82411
142080,The Khalsa Academy Wolverhampton,WV4 6AP,8,52.563604,-2.119
136778,Sutton Coldfield Grammar School for Girls,B73 5PT,8,52.5544302,-1.8296309
103534,St John Wall Catholic School,B21 8HH,8,52.516056,-1.951519
143562,King Edward VI Handsworth Grammar School for Boys,B21 9ET,8,52.5046378,-1.9337542
137043,King Edward VI Aston School,B6 6DJ,8,52.5034848,-1.8851384
138254,Corby Technical School,NN17 1TD,8,52.489136,-0.690654
135907,E-ACT Heartlands Academy,B7 4QR,8,52.487913,-1.875525
144018,Long Stratton High School,NR15 2XR,8,52.487082,1.228142
141698,Q3 Academy Langley,B68 8ED,8,52.4845073,-2.0013093
103493,Bordesley Green Girls' School & Sixth Form,B9 4TR,8,52.4780255,-1.858632
136592,King Edward VI Lordswood School for Girls,B17 8QB,8,52.468755,-1.963214
135317,Brooke Weston Academy,NN18 8LA,8,52.467437,-0.712363
136618,Windsor High School and Sixth Form,B63 4BB,8,52.451599,-2.058838
103498,Selly Park  Girls' School,B29 7PH,8,52.4383887,-1.9205582
136974,Sawtry Village Academy,PE28 5TQ,8,52.436806,-0.27965
141104,Seva School,CV2 2TB,8,52.433605,-1.4355319
137046,King Edward VI Five Ways School,B32 4BT,8,52.4321,-1.999309
103501,Wheelers Lane Technology College,B13 0SF,8,52.427884,-1.887317
135966,Kettering Buccleuch Academy,NN16 9NS,8,52.411817,-0.711131
143404,Ely College,CB6 2SH,8,52.410645,0.249223
141835,St Thomas Aquinas Catholic School,B38 8AP,8,52.4093649,-1.9470141
136333,Arden,B93 0PT,8,52.383349,-1.741443
147345,Bishop Ullathorne Catholic School,CV3 6BH,8,52.3799456,-1.5359998
136595,Rugby High School,CV22 7RE,8,52.352711,-1.28768
136271,Hartismere School,IP23 7BL,8,52.323788,1.139657
143905,Southam College,CV47 0JW,8,52.256317,-1.394519
137826,Impington Village College,CB24 9LX,8,52.247703,0.116976
136416,Debenham High School,IP14 6BL,8,52.2231802,1.1716023
137172,Alcester Academy,B49 6QQ,8,52.220401,-1.85596
145034,Trumpington Community College,CB2 9FD,8,52.176231,0.123436
136552,Goldington Academy,MK41 9BX,8,52.1453059,-0.4427524
136775,Sawston Village College,CB22 3BP,8,52.126461,0.163731
116992,St Mary's RC High School,HR1 4DR,8,52.0639441,-2.659161
136960,Chipping Campden School,GL55 6HU,8,52.053845,-1.7763
137344,Royal Latin School,MK18 1AX,8,51.993477,-0.986157
135672,The Steiner Academy Hereford,HR2 8DL,8,51.976445,-2.756489
137936,Chipping Norton School,OX7 5DY,8,51.937165,-1.543376
137895,The Saint John Henry Newman Catholic School,SG1 4AE,8,51.9198195,-0.2154667
137679,Icknield High School,LU3 2AH,8,51.907351,-0.42723
137634,Churchdown School,GL3 2RB,8,51.881893,-2.177935
136306,Sir Thomas Rich's School,GL2 0LF,8,51.8728829,-2.2051777
136666,Denmark Road High School,GL1 3JN,8,51.8727315,-2.2363687
145480,Henley Bank High School,GL3 4QF,8,51.848208,-2.148796
144013,Five Acres High School,GL16 7QW,8,51.8099294,-2.6089647
147203,The Swan School,OX2 7WP,8,51.77155,-1.24036
140875,Wheatley Park School,OX33 1QH,8,51.7529598,-1.1343364
137123,Marling School,GL5 4HE,8,51.7437824,-2.2359659
136261,Oxford Spires Academy,OX4 2AU,8,51.7428244,-1.2185457
136396,The Broxbourne School,EN10 7FU,8,51.740224,-0.0267262
136863,Moulsham High School,CM2 9ES,8,51.71806,0.470205
137922,Saint Michael's Catholic High School,WD25 0SS,8,51.699566,-0.385939
102058,St Ignatius College,EN1 4NP,8,51.6731496,-0.0553056
135747,JCoSS,EN4 9GE,8,51.6563158,-0.1699919
136922,Yavneh College,WD6 1HL,8,51.654287,-0.268181
136555,Debden Park High School,IG10 2BQ,8,51.6532054,0.0896631
137131,Queen Elizabeth's Girls' School,EN5 5RR,8,51.6518791,-0.1965756
136484,The Royal Grammar School,HP13 6QT,8,51.641104,-0.738806
144502,The Totteridge Academy,N20 8AZ,8,51.638627,-0.2003176
136308,Ashmole Academy,N14 5RJ,8,51.632683,-0.136127
102055,The Latymer School,N9 9TN,8,51.6256819,-0.0755938
134798,London Academy,HA8 8DE,8,51.622486,-0.289357
101362,Finchley Catholic High School,N12 8TA,8,51.622216,-0.18164
138834,Brentwood Ursuline Convent High School,CM14 4EX,8,51.6173744,0.305375
115322,Beauchamps High School,SS11 8LY,8,51.6135367,0.5420635
138227,Avanti House School,HA7 2EQ,8,51.608301,-0.303745
102852,Woodford County High School,IG8 9LA,8,51.6071107,0.0184927
147238,Hasmonean High School for Girls,NW7 2EU,8,51.603863,-0.2337783
137539,Hasmonean High School for Boys,NW4 1NA,8,51.596471,-0.214433
102850,Ilford County High School,IG6 2JB,8,51.5922713,0.0776092
137388,Christ's College Finchley,N2 0SE,8,51.591119,-0.18713
140575,Beal High School,IG4 5LP,8,51.585405,0.05111
138051,The Henrietta Barnett School,NW11 7BN,8,51.581085,-0.189186
133724,JFS,HA3 9TE,8,51.5809399,-0.2830807
142896,Atam Academy,RM6 4XX,8,51.580885,0.11824
102157,Gladesmore Community School,N15 6EB,8,51.5802701,-0.0656648
137040,The Campion School,RM11 3BX,8,51.5802572,0.232027
135364,Swindon Academy,SN2 1JR,8,51.58019,-1.790839
137177,Harrow High School,HA1 2JG,8,51.5794244,-0.3261875
133405,Oaks Park High School,IG2 7PQ,8,51.578448,0.0913454
133599,Yesodey Hatorah Senior Girls School,N16 6UB,8,51.57352,-0.068366
138326,The Frances Bardsley Academy for Girls,RM1 2RR,8,51.5729958,0.198835
137418,The Ursuline Academy Ilford,IG1 4JU,8,51.5625234,0.0691468
142627,Menorah High School for Girls,NW2 7BZ,8,51.56244,-0.23964
137925,The Douay Martyrs Catholic School,UB10 8QY,8,51.5590293,-0.4446362
136711,Queensmead School,HA4 0LS,8,51.557591,-0.389239
135835,The City Academy,E9 6EA,8,51.5489139,-0.0499384
139703,Harris Academy Chobham,E20 1BD,8,51.548593,-0.007099
141683,The Sydney Russell School,RM9 5QT,8,51.547621,0.1339218
100054,The Camden School for Girls,NW5 2DB,8,51.5455937,-0.1344415
101241,Barking Abbey School,IG11 9AG,8,51.5436704,0.1034982
138610,Alperton Community School,HA0 4JE,8,51.543213,-0.29324
136978,Stratford School Academy,E7 9PR,8,51.540748,0.02303
102782,Plashet School,E6 1DG,8,51.5399997,0.0493619
147653,Waterside Academy,E8 4DL,8,51.5387449,-0.0770513
102787,St Bonaventure's RC School,E7 9QD,8,51.538638,0.025446
137994,Saint Claudine's Catholic School for Girls,NW10 4EP,8,51.538381,-0.246109
145126,Harris Academy St John's Wood,NW8 0NL,8,51.5383322,-0.1765695
137312,St Bernard's High School,SS0 7JS,8,51.537412,0.698537
136631,Swakeleys School for Girls,UB10 0EJ,8,51.5368787,-0.4455388
135587,City of London Academy Islington,N1 8PQ,8,51.5359782,-0.097499
131609,The Bridge Academy,E2 8BA,8,51.53566,-0.072666
143756,City of London Academy,N1 5JU,8,51.53547,-0.083447
137976,Langtree School,RG8 0RA,8,51.5324477,-1.0674
137564,Burnham Grammar School,SL1 7HG,8,51.532391,-0.652137
140373,Langdon Academy,E6 2PS,8,51.532279,0.065232
137633,Bishopshalt School,UB8 3RF,8,51.5320651,-0.4592871
100975,Central Foundation Girls' School,E3 2AE,8,51.526814,-0.028321
137259,Baylis Court School,SL1 3AH,8,51.525298,-0.608322
145113,Cumberland Community School,E13 8SJ,8,51.520522,0.033017
143379,St Paul's Way Trust School,E3 4FT,8,51.5189738,-0.024823
145348,Dormers Wells High School,UB1 3HZ,8,51.518669,-0.3663952
143428,Harris Academy Rainham,RM13 9XD,8,51.515456,0.204885
138012,The Westgate School,SL1 5AH,8,51.51407,-0.626947
140212,Kensington Aldridge Academy,W10 6EX,8,51.5140592,-0.21466
110102,The Downs School,RG20 6AD,8,51.5126017,-1.2521571
137287,Slough and Eton Church of England Business and Enterprise College,SL1 2PU,8,51.504881,-0.603397
142654,Ealing Fields High School,W5 4EJ,8,51.4961869,-0.3121753
145140,Harris Garrard Academy,DA18 4DW,8,51.4960258,0.1403305
100849,St Saviour's and St Olave's Church of England School,SE1 4AN,8,51.4947112,-0.0874458
136750,West London Free School,W6 9LP,8,51.49287,-0.23674
136891,The Piggott School,RG10 8DS,8,51.490392,-0.871292
136522,Cranford Community College,TW5 9PD,8,51.487616,-0.406527
147072,Trinity Academy,BS7 9BY,8,51.4869765,-2.5655659
100625,Lilian Baylis Technology School,SE11 5QY,8,51.486203,-0.119346
139971,Holyport College,SL6 3LE,8,51.484014,-0.728322
115239,Grays Convent High School,RM17 5UX,8,51.482929,0.329964
135959,Bristol Metropolitan Academy,BS16 2HD,8,51.480322,-2.538727
141135,The Fulham Boys School,SW6 5BD,8,51.479238,-0.199708
139989,The Green School for Girls,TW7 5BB,8,51.479114,-0.32494
136341,Lampton Academy,TW3 4EP,8,51.477211,-0.367937
145895,Leigh Academy Blackheath,SE3 8SY,8,51.475961,0.027446
138855,Redland Green School,BS6 7EH,8,51.472856,-2.603818
137928,Gumley House RC Convent School,TW7 6XF,8,51.469083,-0.330303
135264,St Matthew Academy,SE3 0XX,8,51.4642082,-0.0006236
102539,The Heathland School,TW4 5JD,8,51.4577897,-0.3748971
134815,The Elms Academy,SW4 9ET,8,51.457389,-0.141186
100749,Trinity Church of England School,SE12 8PD,8,51.455215,0.007515
137681,St Catherine's Catholic School,DA6 7QJ,8,51.454731,0.154382
138449,Harris Academy Greenwich,SE9 5EQ,8,51.4513912,0.0386952
135575,Bristol Cathedral Choir School,BS1 5TS,8,51.451211,-2.600784
100637,La Retraite Roman Catholic Girls' School,SW12 0AB,8,51.4474442,-0.1435058
141716,St Thomas More Catholic Comprehensive School,SE9 2SU,8,51.4467854,0.0623449
136334,Beths Grammar School,DA5 1NE,8,51.44656,0.150747
149543,Ernest Bevin Academy,SW17 7DF,8,51.439099,-0.1698475
137099,Gravesend Grammar School,DA12 2PR,8,51.437077,0.383862
137423,Chislehurst and Sidcup Grammar School,DA15 9AG,8,51.435793,0.107782
137250,Wilmington Grammar School for Girls,DA2 7BB,8,51.4302341,0.1936275
137227,Wilmington Grammar School for Boys,DA2 7DA,8,51.4279029,0.1943554
102681,Wimbledon College,SW19 4NS,8,51.4186675,-0.2209119
102683,Ursuline High School Wimbledon,SW20 8HA,8,51.414024,-0.222821
136910,Tiffin School,KT2 6RL,8,51.4113954,-0.2949917
145286,St Crispin's School,RG40 1SS,8,51.410944,-0.82242
137848,Coombe Girls' School,KT3 3TU,8,51.410424,-0.2629528
147801,St Mark's CofE School,BA1 6ND,8,51.39892,-2.350886
138459,The Holy Cross School,KT3 5AR,8,51.397918,-0.261694
136914,Glenthorne High School,SM3 9PS,8,51.3806315,-0.2006796
140952,Harris Invictus Academy Croydon,CR0 2TB,8,51.3797862,-0.1038814
136800,Greenshaw High School,SM1 3DY,8,51.3770151,-0.1837247
136966,Hayesfield Girls School,BA2 3LA,8,51.3767497,-2.37173
136644,Hayes School,BR2 7DB,8,51.3744757,0.0179793
136313,The Rochester Grammar School,ME1 3BY,8,51.3718923,0.5004425
136785,Cheam High School,SM3 8PW,8,51.366428,-0.217638
136787,Sutton Grammar School,SM1 4AS,8,51.365084,-0.189761
103013,St Philomena's Catholic High School for Girls,SM5 3PS,8,51.3648354,-0.1690927
136585,Dane Court Grammar School,CT10 2RT,8,51.360933,1.418537
136795,Nonsuch High School for Girls,SM3 8AB,8,51.3542665,-0.2248
136789,Wallington High School for Girls,SM6 0PH,8,51.347998,-0.148862
138226,Cobham Free School,KT11 1TF,8,51.339381,-0.396971
138178,Riddlesdown Collegiate,CR8 1EX,8,51.3258103,-0.0867395
142009,Hoe Valley School,GU22 0NH,8,51.2997419,-0.5742012
136727,Oakwood Park Grammar School,ME16 8AH,8,51.2689018,0.4988834
118835,Maidstone Grammar School,ME15 7BT,8,51.265368,0.531064
125279,Royal Alexandra and Albert School,RH2 0TD,8,51.2618411,-0.1750409
116478,Bishop Challoner Catholic Secondary School,RG22 6SR,8,51.256442,-1.122752
136906,George Abbot School,GU1 1XX,8,51.253853,-0.547906
136531,Weydon School,GU9 8UG,8,51.202369,-0.814473
147935,Broadwater School,GU7 3BW,8,51.201275,-0.593955
136455,Weald of Kent Grammar School,TN9 2JP,8,51.1834283,0.2829268
137019,Rodborough,GU8 5BZ,8,51.162901,-0.6473626
136177,Duke of York's Royal Military School,CT15 5EQ,8,51.1444907,1.3242006
125259,Glebelands School,GU6 7AN,8,51.143558,-0.486737
140595,The Skinners' School,TN4 9PG,8,51.1426438,0.261324
118806,Dover Grammar School for Girls,CT16 2PZ,8,51.133709,1.307353
118931,Dover Grammar School for Boys,CT17 0DQ,8,51.1278297,1.2916998
137314,Woolmer Hill School,GU27 1QB,8,51.0942968,-0.7490134
136391,South Wilts Grammar School,SP1 3JJ,8,51.0795107,-1.8003624
136643,Bohunt School,GU30 7NY,8,51.078704,-0.806657
136715,Thornden School,SO53 2DW,8,50.9945,-1.362959
135760,Midhurst Rother College,GU29 9DT,8,50.991643,-0.738771
126087,Downlands Community School,BN6 8LP,8,50.9214191,-0.1382924
137024,Chulmleigh Community College,EX18 7AA,8,50.91626,-3.869953
139409,King's School,BN3 8BN,8,50.8539459,-0.1928338
114612,St Richard's Catholic College,TN40 1SE,8,50.8429633,0.4867171
126096,St Oscar Romero Catholic School,BN12 5AF,8,50.8162417,-0.434627
136850,Poole Grammar School,BH17 9JU,8,50.754443,-1.9803
113907,Poole High School,BH15 2BW,8,50.724516,-1.983797
148737,The Purbeck School,BH20 4PF,8,50.6813529,-2.1221864
136588,Devonport High School for Girls,PL2 3DL,8,50.3925146,-4.1511125
144638,The Five Islands Academy,TR21 0NA,8,49.913977,-6.309106
144601,Ashington Academy,NE63 8DH,7,55.177778,-1.579414
108627,Marden High School,NE30 3RZ,7,55.0266609,-1.440877
137734,St Thomas More Catholic High School,NE29 8LF,7,55.0171075,-1.477163
146752,Jesmond Park Academy,NE7 7DP,7,54.993994,-1.588042
142601,St Wilfrid's RC College,NE34 0QA,7,54.977242,-1.429104
137360,Whickham School,NE16 5AR,7,54.9397208,-1.685775
139538,St Aidan's Catholic Academy,SR2 7HJ,7,54.893315,-1.388021
147122,Dene Academy,SR8 5RL,7,54.757744,-1.317019
149739,Wellfield School,TS28 5AX,7,54.7313011,-1.3754239
142306,Cockermouth School,CA13 9HF,7,54.667465,-3.350974
136732,Queen Elizabeth Grammar School Penrith,CA11 7EG,7,54.6593184,-2.7577299
141370,Our Lady & St. Bede Catholic Academy,TS19 0QH,7,54.5690462,-1.3452875
145774,Acklam Grange School,TS5 8PB,7,54.5438698,-1.2663091
135632,West Lakes Academy,CA22 2DQ,7,54.484377,-3.529318
148602,Lady Lumley's School,YO18 8NG,7,54.2509986,-0.7834401
136357,Queen Elizabeth School,LA6 2HJ,7,54.2009826,-2.6040913
136544,Manor Church of England Academy,YO26 6PA,7,53.975903,-1.136963
136664,Skipton Girls' High School,BD23 1QL,7,53.963808,-2.027338
142648,Millthorpe School,YO23 1WF,7,53.9483194,-1.0906453
143588,Woldgate School and Sixth Form College,YO42 2LL,7,53.9319,-0.765577
108088,Wetherby High School,LS22 6JS,7,53.9304143,-1.3795888
136997,Bowland High,BB7 4QS,7,53.910137,-2.359381
136736,South Craven School,BD20 7RL,7,53.899701,-1.988869
145777,Tadcaster Grammar School,LS24 9NB,7,53.8764099,-1.3087378
137775,Horsforth School,LS18 5RF,7,53.84284,-1.639577
139646,Leeds City Academy,LS6 2LG,7,53.817738,-1.55842
140759,St George's School A Church of England Academy,FY4 4PH,7,53.79786,-3.014893
146247,Temple Moor High School,LS15 0PT,7,53.796541,-1.460905
119779,Our Lady's Catholic High School,PR2 3SQ,7,53.7806776,-2.7244165
145927,Cockburn John Charles Academy,LS10 2JU,7,53.765665,-1.537819
119804,Mount Carmel Roman Catholic High School,BB5 0LU,7,53.744336,-2.377053
138111,BBG Academy,BD19 4BE,7,53.743968,-1.691834
142056,Bruntcliffe Academy,LS27 0LZ,7,53.7437049,-1.6192128
136900,St Wilfrid's Church of England Academy,BB2 2JR,7,53.74248,-2.494283
138336,Rodillian Academy,WF3 3PS,7,53.730313,-1.5027119
136667,South Hunsley School and Sixth Form College,HU14 3HS,7,53.72775,-0.533967
144946,Trinity Academy Grammar,HX6 2NW,7,53.7140054,-1.9085191
139182,The Crossley Heath School,HX3 0HG,7,53.711648,-1.878151
141307,Ryburn Valley High School,HX6 1DF,7,53.704149,-1.931857
139076,Manor Croft Academy,WF12 7DW,7,53.6927471,-1.6166416
137768,Tarleton Academy,PR4 6AQ,7,53.684299,-2.831672
138707,Horbury Academy,WF4 5HE,7,53.6612554,-1.5469003
138950,St Thomas a Becket Catholic Secondary School,WF2 6EQ,7,53.660928,-1.483322
146365,Thornhill Community Academy,WF12 0HE,7,53.659588,-1.617409
137001,Crofton Academy,WF4 1NF,7,53.656822,-1.428524
138647,Parklands High School,PR7 1LL,7,53.655828,-2.646469
137869,Salendine Nook High School Academy,HD3 4GN,7,53.653571,-1.836575
137297,Birkdale High School,PR8 3DT,7,53.611107,-3.025365
146906,Honley High School,HD9 6QJ,7,53.60789,-1.783521
137011,Minsthorpe Community College,WF9 2UJ,7,53.602483,-1.2911256
144044,Canon Slade School,BL2 3BP,7,53.602351,-2.409666
146320,Darton Academy,S75 5EF,7,53.582418,-1.548504
105355,The Derby High School,BL9 9NH,7,53.5822773,-2.3062555
137066,Ash Hill Academy,DN7 6JH,7,53.574793,-1.008445
142340,Bolton Muslim Girls School,BL3 6TQ,7,53.5674034,-2.4414967
119792,St Bede's Catholic High School,L39 4TA,7,53.5620235,-2.8966935
137436,Formby High School,L37 3HW,7,53.560696,-3.068644
136115,E-ACT the Oldham Academy North,OL2 5BF,7,53.56051,-2.1258431
137453,The Vale Academy,DN20 8AR,7,53.555981,-0.49846
105358,Parrenthorn High School,M25 2BW,7,53.5451,-2.262923
137472,Don Valley Academy,DN5 9DD,7,53.5447857,-1.1721152
105576,Our Lady's RC High School,M9 0RP,7,53.5370683,-2.2206478
106653,Penistone Grammar School,S36 7BX,7,53.5341244,-1.6374874
137309,The King David High School,M8 5DY,7,53.5157173,-2.2463778
138698,Beis Yaakov High School,M7 4FF,7,53.5091819,-2.2610865
136958,Caistor Yarborough Academy,LN7 6QZ,7,53.4969463,-0.3095967
131512,All Hallows RC High School,M6 8AA,7,53.4915887,-2.315054
135942,De Warenne Academy,DN12 3JY,7,53.4845423,-1.2389681
137801,Trinity CofE High School,M15 6HP,7,53.4654378,-2.2389566
134224,Manchester Academy,M14 4PX,7,53.45774,-2.234674
106271,St Thomas More RC College,M34 6AF,7,53.451075,-2.114325
139992,Wingfield Academy,S61 4AU,7,53.449114,-1.382587
135296,William Hulme's Grammar School,M16 8PR,7,53.445802,-2.248595
144755,Manchester Enterprise Academy Central,M14 6PL,7,53.445389,-2.205503
139148,Chorlton High School,M21 7SL,7,53.4364,-2.265038
138329,St Bernard's Catholic High School,S65 3BE,7,53.4249781,-1.3211162
120655,The Queen Elizabeth's High School,DN21 2ST,7,53.411755,-0.777708
106138,Marple Hall School,SK6 6LB,7,53.3999373,-2.0891199
135262,Stockport Academy,SK3 0UP,7,53.3998959,-2.1838649
106135,Stockport School,SK2 6BW,7,53.391365,-2.13905
111454,St Gregory's Catholic High School,WA5 1HG,7,53.3912085,-2.6200105
143104,North Cestrian School,WA14 4AJ,7,53.3888479,-2.3563543
135877,Birkenhead High School Academy,CH43 1TY,7,53.387568,-3.050559
137243,West Kirby Grammar School,CH48 5DP,7,53.3781577,-3.1853102
137923,Hazel Grove High School,SK7 5JX,7,53.370221,-2.134625
139144,Calday Grange Grammar School,CH48 8GG,7,53.367593,-3.163147
144968,Louth Academy,LN11 9AW,7,53.366413,0.003843
142262,King Edward VI Grammar School,LN11 9LL,7,53.3637732,-0.0100526
141598,Bridgewater High School,WA4 3AE,7,53.363701,-2.575631
106142,St James' Catholic High School,SK8 6PZ,7,53.3610381,-2.1989868
137476,Wirral Grammar School for Boys,CH63 3AQ,7,53.347793,-3.012821
146387,Poynton High School,SK12 1PU,7,53.344193,-2.113332
105101,Pensby High School,CH61 6XN,7,53.342622,-3.111967
112932,Chapel-en-le-Frith High School,SK23 0TQ,7,53.3187687,-1.9233432
136415,William Farr CofE Comprehensive School,LN2 3JB,7,53.301264,-0.481445
138318,Neston High School,CH64 9NH,7,53.296883,-3.054828
141377,Outwood Academy Newbold,S41 8BA,7,53.252382,-1.436411
136548,Brookfield Community School,S40 3NS,7,53.2335556,-1.4705471
111422,Upton-by-Chester High School,CH2 1NN,7,53.2145179,-2.8693098
138665,Queen Elizabeth's Grammar School,LN9 5AD,7,53.209111,-0.122676
112996,Lady Manners School,DE45 1JA,7,53.205147,-1.682579
136543,The Bishops' Blue Coat Church of England High School,CH3 5XF,7,53.1833216,-2.8651618
136645,Christleton High School,CH3 7AD,7,53.183183,-2.833362
138483,Tarporley High School and Sixth Form College,CW6 0BL,7,53.153428,-2.664899
140698,All Saints' Catholic Voluntary Academy,NG19 6BW,7,53.1522544,-1.2159433
136340,Sandbach High School and Sixth Form College,CW11 3NT,7,53.1462878,-2.373677
137491,Sandbach School,CW11 3NS,7,53.142789,-2.371689
140108,Alsager School,ST7 2HR,7,53.099046,-2.318261
139764,St Thomas More Catholic High School,CW2 8AE,7,53.08721,-2.457983
149644,Anthony Gell School,DE4 4DX,7,53.079866,-1.5701014
145643,The Minster School,NG25 0LG,7,53.074209,-0.957509
144489,The Newark Academy,NG24 3AL,7,53.064703,-0.789849
136102,Co-op Academy Stoke-On-Trent,ST6 4LD,7,53.0511903,-2.2088852
142710,John Flamsteed Community School,DE5 8NP,7,53.018924,-1.426172
140154,Madeley High School,CW3 9JJ,7,53.0015822,-2.3356847
139068,Thistley Hough Academy,ST4 5JJ,7,52.999332,-2.202288
139140,Boston High School,PE21 9PF,7,52.988555,-0.010563
141010,Nottingham Free School,NG5 1EB,7,52.9796921,-1.1598516
136878,Toot Hill School,NG13 8BL,7,52.9479823,-0.9521673
138622,Saint Benedict,DE22 1JD,7,52.942729,-1.486288
137409,The Becket School,NG2 7QY,7,52.927795,-1.154571
138832,Alderman White School,NG9 3DU,7,52.926494,-1.241272
137431,Cromer Academy,NR27 0EX,7,52.9229812,1.3046299
136291,George Spencer Academy,NG9 7EW,7,52.920831,-1.268876
146451,Wilsthorpe School,NG10 4WT,7,52.904313,-1.291778
112956,Littleover Community School,DE23 4BZ,7,52.899442,-1.527386
142193,Blessed William Howard Catholic School,ST17 9AB,7,52.800157,-2.123004
121164,Aylsham High School,NR11 6AN,7,52.7966622,1.2579813
137336,The Corbet School,SY4 2AX,7,52.7944776,-2.8500905
144488,Spalding Academy,PE11 2EJ,7,52.7846647,-0.138605
139304,Spalding Grammar School,PE11 2XH,7,52.783563,-0.153413
144533,Granville Academy,DE11 7JR,7,52.7769107,-1.5386979
137367,Limehurst Academy,LE11 1NH,7,52.774708,-1.20743
137446,Haberdashers' Adams,TF10 7BD,7,52.7695483,-2.3819916
137401,Woodbrook Vale School,LE11 2ST,7,52.750593,-1.219163
146063,Broadland High Ormiston Academy,NR12 8QN,7,52.7167506,1.4134769
146506,Belvidere School,SY2 5RJ,7,52.70962,-2.72139
142313,Kingsmead School,WS12 1DH,7,52.70228,-1.995133
142396,Marshland High School,PE14 7HA,7,52.6964134,0.1871626
138216,The Priory School,SY3 9EE,7,52.695933,-2.768176
123627,Thomas Telford School,TF3 4NW,7,52.6780084,-2.4593504
136886,Erasmus Darwin Academy,WS7 3QW,7,52.668317,-1.934582
141331,Caister Academy,NR30 5LS,7,52.6533926,1.728838
143679,Avanti Fields School,LE5 0BX,7,52.65237,-1.07531
146232,St Paul's Catholic School,LE5 6HN,7,52.6285938,-1.0693435
120277,Crown Hills Community College,LE5 5FT,7,52.627603,-1.0918
138869,Madani Boys School,LE5 5LL,7,52.6264656,-1.1000086
145558,Judgemeadow Community College,LE5 6HP,7,52.622064,-1.067348
139624,Beauchamp College,LE2 5TP,7,52.588193,-1.072392
139082,City of Peterborough Academy,PE1 5LQ,7,52.584482,-0.221191
145776,Framingham Earl High School,NR14 7QP,7,52.580851,1.338234
137461,Wymondham High Academy,NR18 0QT,7,52.576437,1.117672
143101,The Royal School,WV3 0EG,7,52.5721,-2.138151
142317,Highfields School,WV4 4NT,7,52.565481,-2.177692
136885,Barr Beacon School,WS9 0RF,7,52.5612656,-1.9151528
137968,Redmoor Academy,LE10 0EP,7,52.5514862,-1.3862305
140524,Bishop Walsh Catholic School,B76 1QT,7,52.5495215,-1.8120284
103539,Cardinal Wiseman Catholic School,B44 9SR,7,52.5493128,-1.8861189
137880,Stanground Academy,PE7 3BY,7,52.547783,-0.226112
135980,Ormiston Bushfield Academy,PE2 5RQ,7,52.54464,-0.303073
139455,Church Stretton School,SY6 6EX,7,52.5432348,-2.8049342
136091,The Phoenix Collegiate,B71 2BX,7,52.5402813,-1.995599
140103,Hastings High School,LE10 2QE,7,52.5350755,-1.3551303
147707,St Edmund Campion Catholic School,B23 5XA,7,52.531192,-1.830934
137771,Etone College,CV11 6AA,7,52.52613,-1.45814
140534,Attleborough Academy,NR17 2AJ,7,52.5197058,1.0187566
103483,Hodge Hill Girls' School,B36 8EY,7,52.5023076,-1.8181594
103503,Hodge Hill College,B36 8HB,7,52.5014654,-1.8210552
103854,Summerhill School,DY6 9XE,7,52.4942237,-2.1810271
139888,Washwood Heath Academy,B8 2AS,7,52.490029,-1.822072
137161,The Robert Smyth Academy,LE16 7JG,7,52.4884592,-0.9219146
104019,St Michael's Church of England High School,B65 9AN,7,52.483378,-2.046341
135170,Shireland Collegiate Academy,B66 4ND,7,52.4825581,-1.9654885
142063,Prince William School,PE8 4BS,7,52.4767018,-0.4618412
137170,Welland Park Academy,LE16 9DR,7,52.474361,-0.920978
144464,Small Heath Leadership Academy,B10 9RX,7,52.472924,-1.855021
147757,Starbank School,B10 9BT,7,52.471949,-1.833628
135970,Ark St Alban's Academy,B12 0YH,7,52.4661965,-1.8886319
141342,Kinver High School and Sixth Form,DY7 6AA,7,52.4542049,-2.2316139
137115,Lutterworth High School,LE17 4QH,7,52.4523835,-1.2097941
103870,Old Swinford Hospital,DY8 1QX,7,52.4505369,-2.1438128
142075,Lyndon School,B92 8EJ,7,52.448208,-1.789576
137346,Hillcrest School and Sixth Form Centre,B32 3AE,7,52.4450913,-1.981988
147346,Cardinal Newman Catholic School,CV6 2FR,7,52.443076,-1.533826
103497,Queensbridge School,B13 8QB,7,52.44007,-1.896401
135335,Grace Academy Coventry,CV2 2RH,7,52.4396633,-1.4451728
137007,Langley School,B92 7ER,7,52.428579,-1.811869
137008,Lode Heath School,B91 2HW,7,52.425569,-1.7772906
136898,Haybridge High School and Sixth Form,DY8 2XS,7,52.423778,-2.147328
141414,Hagley Catholic High School,DY8 2XL,7,52.422673,-2.149285
103562,King's Norton Boys' School,B30 1DY,7,52.4176941,-1.9412289
145179,Stoke Park School,CV2 4JW,7,52.412722,-1.4738027
136994,Alderbrook School,B91 1SN,7,52.4066158,-1.7966539
137272,Blue Coat Church of England School and Music College,CV1 2BA,7,52.3994494,-1.4923396
137086,Bishop Stopford School,NN15 6BJ,7,52.386908,-0.7255431
122066,The Latimer Arts College,NN15 6SW,7,52.381356,-0.693021
137475,Hinchingbrooke School,PE29 3BN,7,52.3283038,-0.2027506
137901,Stradbroke High School,IP21 5JN,7,52.3158662,1.2715838
137912,Sir Christopher Hatton Academy,NN8 4RP,7,52.308536,-0.695944
142202,North Leamington School,CV32 6RD,7,52.3080634,-1.5332016
136991,Henley In Arden School,B95 6AF,7,52.286603,-1.778781
137434,Cottenham Village College,CB24 8UA,7,52.282496,0.124777
140510,Northampton School for Girls,NN3 6DG,7,52.265769,-0.874467
143634,St Benedict's Catholic High School,B49 6PX,7,52.2173561,-1.8660244
137051,Nunnery Wood High School,WR5 2LT,7,52.184014,-2.189978
116999,Blessed Edward Oldcorne Catholic College,WR5 2XD,7,52.181353,-2.211173
136471,Lincroft Academy,MK43 7RE,7,52.1694521,-0.5211384
139517,St Thomas More Catholic School,MK41 7UL,7,52.161212,-0.4645557
136085,Bedford Academy,MK42 9TR,7,52.1178327,-0.451006
124840,Northgate High School,IP4 3DL,7,52.0719004,1.1809261
136827,Copleston High School,IP4 5HD,7,52.054568,1.194119
141146,Blessed George Napier Catholic School and Sixth Form,OX16 9DG,7,52.047969,-1.33886
136454,Oakgrove School,MK10 9JQ,7,52.038493,-0.708155
141639,Thomas Gainsborough School,CO10 0NH,7,52.0251363,0.7529212
136468,Denbigh School,MK5 6EX,7,52.025065,-0.790168
136772,Cleeve School,GL52 8AE,7,51.941506,-2.055982
142310,Cardinal Newman Catholic School A Specialist Science College,LU2 7AE,7,51.9262913,-0.4222525
115772,Pittville School,GL52 3JD,7,51.911464,-2.064412
117530,The Nobel School,SG2 0HS,7,51.9103737,-0.1665095
144311,Putteridge High School,LU2 8HJ,7,51.9050302,-0.3842426
136725,Cheltenham Bournside School and Sixth Form Centre,GL51 3EF,7,51.886749,-2.10086
115382,St Benedict's Catholic College,CO3 3US,7,51.8850339,0.874685
145872,Chiltern Academy,LU1 3GF,7,51.872847,-0.401042
136482,Hockerill Anglo-European College,CM23 5HX,7,51.871052,0.171205
148499,St Mary's Catholic School,CM23 2NQ,7,51.870439,0.153656
138817,The Marlborough Church of England School,OX20 1LP,7,51.848816,-1.341418
136767,Ribston Hall High School,GL1 5LE,7,51.846072,-2.243625
137298,Severn Vale School,GL2 4PR,7,51.824449,-2.28724
145890,Katherine Warington School,AL5 5FH,7,51.8239059,-0.3299455
138632,Monk's Walk School,AL8 7NL,7,51.8220646,-0.20975
138289,Burford School,OX18 4PL,7,51.803585,-1.641648
138352,Tring School,HP23 5JD,7,51.79818,-0.654509
139873,Richard Hale School,SG13 8EN,7,51.793457,-0.079096
137260,Chelmer Valley High School,CM1 7ER,7,51.7712037,0.4646892
137038,Verulam School,AL1 4PR,7,51.755462,-0.316212
139146,Cheney School,OX3 7QH,7,51.7534872,-1.2244604
117578,Ashlyns School,HP4 3AH,7,51.753385,-0.564191
138582,Samuel Ryder Academy,AL1 5AR,7,51.738834,-0.311037
147246,Chancellor's School,AL9 7BN,7,51.7268789,-0.1844802
136527,Cirencester Deer Park School,GL7 1XB,7,51.7125883,-1.990965
137532,Goffs Academy,EN7 5QW,7,51.706054,-0.057998
145297,Goffs - Churchgate Academy,EN8 9LY,7,51.7000335,-0.0467046
145322,The Misbourne School,HP16 0BN,7,51.696632,-0.7029195
137343,Amersham School,HP7 9HH,7,51.6677239,-0.5935937
138058,Holmer Green Senior School,HP15 6SP,7,51.6660354,-0.7000102
139815,Ark John Keats Academy,EN3 5PA,7,51.665934,-0.03669
136625,Davenant Foundation School,IG10 2LD,7,51.6624589,0.0857988
136877,Queens' School,WD23 2TY,7,51.658482,-0.369038
102048,Enfield County School for Girls,EN2 6QG,7,51.6555493,-0.0853526
136327,Kingsmead School,EN1 1YQ,7,51.651369,-0.061172
143984,Icknield Community College,OX49 5RB,7,51.64839,-1.007097
142727,Southgate School,EN4 0BL,7,51.647316,-0.1420119
135958,Oasis Academy Hadley,EN3 4PX,7,51.6423062,-0.0376618
137914,Saint Joan of Arc Catholic School,WD3 1HG,7,51.6403979,-0.4635934
143197,Edmonton County School,N9 9JZ,7,51.633349,-0.078762
147536,AIM Academy North London,N9 8DQ,7,51.63286,-0.04592
137033,Katharine Lady Berkeley's School,GL12 8RB,7,51.6308728,-2.3667595
137386,Mill Hill County High School,NW7 4LL,7,51.62775,-0.246335
139410,St Andrew the Apostle Greek Orthodox School,N11 1NP,7,51.6254396,-0.1525029
149612,St Michael's Catholic School,HP11 1PW,7,51.618482,-0.755813
102860,Trinity Catholic High School,IG8 0TP,7,51.6165955,0.0205282
139348,The Castle School,BS35 1HT,7,51.6161508,-2.5258492
136758,West Hatch High School,IG7 5BT,7,51.6130562,0.0612543
110500,Cressex Community School,HP12 4QA,7,51.612134,-0.782387
138685,Copthall School,NW7 2EP,7,51.608661,-0.232614
137357,Wallingford School,OX10 8HH,7,51.604956,-1.127707
145921,Saracens High School,NW9 4AS,7,51.6032203,-0.2429042
138762,St Birinus School,OX11 8AZ,7,51.6014974,-1.2428789
101364,St James' Catholic High School,NW9 5PE,7,51.6012367,-0.2405833
138458,Salvatorian Roman Catholic College,HA3 5DY,7,51.5996386,-0.3391217
132727,Walthamstow Academy,E17 5DP,7,51.599489,-0.02444
139616,Heartlands High School,N22 7ST,7,51.596211,-0.1182407
143082,Bishop Douglass School Finchley,N2 0SQ,7,51.594066,-0.178293
102156,Fortismere School,N10 1NE,7,51.5934355,-0.1525465
103119,St Mary's and St John's CofE School,NW4 4QR,7,51.592732,-0.226161
137685,Kingsbury High School,NW9 9JR,7,51.589729,-0.274751
133386,Greig City Academy,N8 7NU,7,51.587551,-0.117228
143877,The Royal Liberty School,RM2 6HJ,7,51.5860631,0.2093476
102154,Highgate Wood Secondary School,N8 8RN,7,51.58203,-0.132831
102153,Hornsey School for Girls,N8 9JF,7,51.5818853,-0.1142248
102851,Wanstead High School,E11 2JZ,7,51.575654,0.035736
137361,Whitefield School,NW2 1TR,7,51.57341,-0.21916
100459,St Aloysius RC College,N6 5LY,7,51.5697942,-0.1384624
143385,Norlington School and 6th Form,E10 6JZ,7,51.5671697,-0.0018155
139319,Preston Manor School,HA9 8NA,7,51.5658053,-0.28945
137088,The Palmer Catholic Academy,IG3 8EU,7,51.5647039,0.0931483
136980,St Joseph's Catholic College,SN3 3LR,7,51.5638392,-1.7652458
137198,Rooks Heath School,HA2 9AH,7,51.562253,-0.37187
143946,Hornchurch High School,RM12 4AJ,7,51.5586887,0.2013678
100279,Stoke Newington School and Sixth Form,N16 9EX,7,51.557887,-0.084609
137310,St Thomas More High School,SS0 0BW,7,51.5563754,0.6692607
136600,The Coopers' Company and Coborn School,RM14 3HS,7,51.556161,0.260015
136577,The King John School,SS7 1RQ,7,51.5546792,0.5926399
131062,The Excelsior Academy,E8 2EY,7,51.5520265,-0.0698124
109319,Brimsham Green School,BS37 7LB,7,51.551611,-2.42612
102776,Little Ilford School,E12 6JB,7,51.547269,0.061279
134369,Alec Reed Academy,UB5 5LQ,7,51.54417,-0.38399
142644,Sarah Bonnell School,E15 4LP,7,51.542979,0.007408
101244,Eastbury Community School,IG11 9UW,7,51.5415918,0.0903835
137753,Bradley Stoke Community School,BS32 9BS,7,51.5356007,-2.544285
137740,Furze Platt Senior School,SL6 7NQ,7,51.5352033,-0.7395952
142908,Greatfields School,IG11 7QG,7,51.5325975,0.084117
101940,Greenford High School,UB1 2GU,7,51.53102,-0.37041
100972,Oaklands School,E2 6PR,7,51.5300847,-0.0581078
137160,The Ridgeway School & Sixth Form College,SN4 9DJ,7,51.529265,-1.791981
100967,Morpeth School,E2 0PX,7,51.52678,-0.04849
137077,Rosedale College,UB3 2SE,7,51.519988,-0.429209
143803,St Joseph's Catholic High School,SL2 5HW,7,51.519363,-0.586509
136329,Guru Nanak Sikh Academy,UB4 0LT,7,51.508767,-0.398065
137627,St Bede's Catholic College,BS11 0SU,7,51.5058261,-2.6588166
135631,The Langley Academy,SL3 7EF,7,51.5034822,-0.5550753
143686,Woolwich Polytechnic School for Girls,SE28 8RF,7,51.5031918,0.1057053
145313,Bacon's College,SE16 6AT,7,51.5028752,-0.0407392
136822,Bristol Free School,BS10 6NJ,7,51.5020455,-2.6126571
102451,Harlington School,UB3 1PB,7,51.4970845,-0.4358261
134222,City of London Academy (Southwark),SE1 5LA,7,51.489226,-0.0647
145866,Bolder Academy,TW7 5DB,7,51.48856,-0.330261
135676,Pimlico Academy,SW1V 3AT,7,51.4878018,-0.1372866
139095,Brentford School for Girls,TW8 0PG,7,51.486098,-0.307162
138924,Heston Community School,TW5 0QR,7,51.4843704,-0.3680818
137907,Chiswick School,W4 3UN,7,51.481907,-0.259827
136307,Highdown School and Sixth Form Centre,RG4 8LR,7,51.4815517,-0.9758509
139365,Fulham Cross Girls' School and Language College,SW6 6BP,7,51.4810918,-0.2149606
144750,Harris Academy Riverside,RM19 1QY,7,51.47916,0.2399
135531,Chelsea Academy,SW10 0AB,7,51.4782579,-0.1828469
139718,Ark All Saints Academy,SE5 0UB,7,51.478034,-0.099592
141705,Fairfield High School,BS7 9NL,7,51.4750962,-2.5721141
139276,Kingsley Academy,TW3 1AX,7,51.4711481,-0.358483
135300,Bristol Brunel Academy,BS15 1NU,7,51.467981,-2.527727
142166,Waingels,RG5 4RF,7,51.464605,-0.889347
136208,Richmond Park Academy,SW14 8RG,7,51.463153,-0.257733
102929,Christ's Church of England Comprehensive Secondary School,TW10 6HW,7,51.4590931,-0.2879961
135295,John Cabot Academy,BS15 8BD,7,51.457364,-2.515328
100182,Eltham Hill School,SE9 5EE,7,51.450912,0.045783
137884,Clevedon School,BS21 6AH,7,51.4471569,-2.8418508
141808,Saint Cecilia's Church of England School,SW18 5JR,7,51.446964,-0.208576
138682,Southfields Academy,SW18 5JU,7,51.4453217,-0.197241
136883,Chestnut Grove Academy,SW12 8JZ,7,51.4443666,-0.1550127
145398,Ashton Park School,BS3 2JL,7,51.4405851,-2.6327328
139842,Burntwood School,SW17 0AQ,7,51.438125,-0.180083
100745,Forest Hill School,SE23 2XN,7,51.431914,-0.047802
138466,Nailsea School,BS48 2HN,7,51.430336,-2.755204
138460,Teddington School,TW11 9PJ,7,51.423227,-0.312457
136722,Backwell School,BS48 3BX,7,51.416487,-2.7385123
100590,Woodmansterne School,SW16 5UQ,7,51.413164,-0.134999
137754,Norbury High School for Girls,CR7 8BT,7,51.410837,-0.112115
138491,The Bishop Wand Church of England School,TW16 6LT,7,51.4095966,-0.4264826
137523,Wellsway School,BS31 1PH,7,51.409528,-2.487457
136709,Bullers Wood School,BR7 5LJ,7,51.4093709,0.0494345
102674,Raynes Park High School,SW20 0JL,7,51.4034269,-0.2384078
135249,Harris Academy South Norwood,SE25 6AE,7,51.40013,-0.074717
137678,The Hollyfield School and Sixth Form Centre,KT6 4TU,7,51.3964151,-0.2986371
137859,Coombe Boys' School,KT3 6NU,7,51.3958456,-0.247118
138823,Charters School,SL5 9QY,7,51.392432,-0.651553
136586,Langley Park School for Boys,BR3 3BP,7,51.3889846,-0.0198574
137006,Langley Park School for Girls,BR3 3BE,7,51.388423,-0.0175776
142040,Orchard Park High School,CR0 7NJ,7,51.384523,-0.040307
142181,Bohunt School Wokingham,RG2 9GB,7,51.3785704,-0.8939618
137917,Southborough High School,KT6 5AS,7,51.375676,-0.301978
140650,Esher Church of England High School,KT10 8AP,7,51.3750221,-0.3708019
137389,Chatham Grammar,ME5 7EH,7,51.37372,0.54826
146972,Beechen Cliff School,BA2 4RE,7,51.3714837,-2.360401
136864,Rainham Mark Grammar School,ME8 7AJ,7,51.371055,0.594652
136797,Carshalton High School for Girls,SM5 2QX,7,51.3696504,-0.1696496
149347,Coloma Convent Girls' School,CR9 5AS,7,51.3689782,-0.0520301
142314,Heathside School,KT13 8UZ,7,51.3647348,-0.4673078
136456,Rainham School for Girls,ME8 0BX,7,51.3632756,0.5914829
141466,The Howard School,ME8 0BX,7,51.3632756,0.5914829
138522,Ralph Allen School,BA2 7AD,7,51.362941,-2.334913
145875,Coombe Wood School,CR2 7HY,7,51.362237,-0.078205
144015,The Charles Dickens School,CT10 2RL,7,51.3602966,1.4222587
109329,Saint Gregory's Catholic College,BA2 8PA,7,51.353507,-2.382205
135955,Harris Academy Purley,CR2 6DT,7,51.353061,-0.107827
137057,St Laurence School,BA15 1DZ,7,51.352088,-2.259199
138630,Devizes School,SN10 3AG,7,51.350112,-1.987975
137906,Blenheim High School,KT19 9BH,7,51.3450994,-0.2658955
103009,The John Fisher School,CR8 3YP,7,51.345097,-0.133833
136708,Hans Price Academy,BS23 3QP,7,51.3377759,-2.9647479
137800,Borden Grammar School,ME10 4DB,7,51.337371,0.73464
139993,Woking High School,GU21 4TJ,7,51.328242,-0.570906
137375,St Augustine's Catholic College,BA14 9EN,7,51.318082,-2.2221005
139554,Trinity School,TN13 3SL,7,51.286756,0.207609
136389,Lavington School,SN10 4EB,7,51.2862467,-1.9899274
116436,Calthorpe Park School,GU51 5JA,7,51.2779586,-0.8620837
137474,Barton Court Grammar School,CT1 1PH,7,51.276688,1.091418
136833,Howard of Effingham School,KT24 5JR,7,51.273749,-0.395299
116448,The Wavell School,GU14 6BH,7,51.2718393,-0.7559804
118840,Simon Langton Girls' Grammar School,CT1 3EW,7,51.264737,1.096579
125271,Ash Manor School,GU12 6QH,7,51.239906,-0.7275265
143901,The Ashcombe School,RH4 1LY,7,51.2391195,-0.3297013
145217,Reigate School,RH2 7NT,7,51.224501,-0.193248
137285,The Blue School,BA5 2NR,7,51.2123864,-2.6522311
137104,Hillview School for Girls,TN9 2HE,7,51.18813,0.2829973
139664,Wye School,TN25 5EJ,7,51.184445,0.940762
118790,Tunbridge Wells Grammar School for Boys,TN4 9XB,7,51.1505597,0.2609255
138019,The Norton Knatchbull School,TN24 0QJ,7,51.146597,0.890534
136917,Haygrove School,TA6 7HW,7,51.123019,-3.022481
137313,Sexey's School,BA10 0DF,7,51.1051405,-2.4643123
116438,Henry Beaufort School,SO22 6JJ,7,51.0808296,-1.3290694
137837,The Folkestone School for Girls,CT20 3RB,7,51.076765,1.15119
126066,Millais School,RH13 5HR,7,51.0632169,-0.3055083
116468,Kings' School,SO22 5PN,7,51.05881,-1.346506
126068,Weald School,RH14 9RY,7,51.017037,-0.453648
126085,Oathall Community College,RH16 2AQ,7,51.006477,-0.092159
137416,Warden Park Secondary Academy,RH17 5DP,7,51.0029201,-0.131323
114587,Heathfield Community College,TN21 8RJ,7,50.9672849,0.2780487
136894,Preston School Academy,BA21 3JD,7,50.9452207,-2.659714
116424,Swanmore College,SO32 2RB,7,50.94002,-1.188496
114594,Chailey School,BN8 4PU,7,50.939833,-0.0283975
114598,Priory School,BN7 2XN,7,50.869112,0.01695
116419,Brookfield Community School,SO31 7DU,7,50.864617,-1.28474
114579,Varndean School,BN1 6NP,7,50.8498932,-0.1380867
136657,Ringwood School Academy,BH24 1SE,7,50.8477178,-1.7840156
114606,Blatchington Mill School,BN3 7BW,7,50.8453,-0.18403
140713,Durrington High School,BN13 1JX,7,50.8270957,-0.4090864
137782,The Regis School,PO21 5LH,7,50.7923619,-0.6929023
136646,Queen Elizabeth's,EX17 3LU,7,50.791939,-3.66608
138475,The Cavendish School,BN21 1UE,7,50.7802632,0.2606497
113863,Lytchett Minster School,BH16 6JD,7,50.74112,-2.058657
147401,St Luke's Church of England School,EX1 3RD,7,50.7324614,-3.4773628
113553,St Peter's Church of England Aided School,EX2 5AP,7,50.7184466,-3.4826153
139155,Launceston College,PL15 9JR,7,50.629481,-4.356665
136321,Torquay Boys' Grammar School,TQ2 7EL,7,50.4760543,-3.5575617
136533,Newquay Tretherras,TR7 3BH,7,50.416489,-5.0584066
136336,Ivybridge Community College,PL21 0JA,7,50.3930523,-3.9157059
136668,Lipson Co-operative Academy,PL4 7PG,7,50.381718,-4.11051
136496,Devonport High School for Boys,PL1 5QP,7,50.374031,-4.1617
147442,Poltair School,PL25 4BZ,7,50.3427052,-4.7866729
141814,St Benet Biscop Catholic Academy,NE22 6ED,6,55.132673,-1.604967
137457,Cramlington Learning Village,NE23 6BN,6,55.0753394,-1.593183
145783,Ponteland High School,NE20 9EG,6,55.048916,-1.740908
108628,Norham High School,NE29 7BU,6,55.005679,-1.473916
137900,St Cuthbert's High School,NE15 7PX,6,54.978883,-1.675253
141185,Thorp Academy,NE40 3AH,6,54.9735477,-1.7771357
133725,Jarrow School,NE32 5PR,6,54.972667,-1.487454
137851,St Thomas More Catholic School,NE21 4BQ,6,54.9619741,-1.7229504
136386,Whitburn Church of England Academy,SR6 7EF,6,54.949521,-1.359051
137252,William Howard School,CA8 1AR,6,54.9439824,-2.743807
147532,Monkwearmouth Academy,SR6 8LG,6,54.9370156,-1.3838442
135878,Red House Academy,SR5 5LN,6,54.9297591,-1.423819
135818,Castle View Enterprise Academy,SR5 3DX,6,54.918355,-1.446786
138054,St Anthony's Girls' Catholic Academy,SR2 7JN,6,54.9001921,-1.3905817
137369,Trinity School,CA1 1JB,6,54.8979871,-2.9275824
141986,Sandhill View Academy,SR3 4EN,6,54.888194,-1.428849
147142,St Robert of Newminster Catholic School and Sixth Form College,NE38 8AF,6,54.8876139,-1.5220607
147531,Hermitage Academy,DH2 3AD,6,54.850589,-1.592339
137254,Caldew School,CA5 7NN,6,54.845416,-2.980408
138172,St Bede's Catholic School and Sixth Form College,DH7 0RD,6,54.828435,-1.746961
112397,The Nelson Thomlinson School,CA7 9PX,6,54.8212802,-3.1567038
149235,Hetton Academy,DH5 9JZ,6,54.817893,-1.460313
112378,Samuel King's School,CA9 3QU,6,54.8110056,-2.4402041
114308,Belmont Community School,DH1 2QP,6,54.7851135,-1.5282417
138075,Easington Academy,SR8 3AY,6,54.782358,-1.356518
148304,St Bede's Catholic School and Byron Sixth Form College,SR8 1DE,6,54.7581638,-1.3453348
137903,Parkside Academy,DL15 0QF,6,54.707015,-1.691179
145564,Whitworth Park Academy,DL16 7LN,6,54.694806,-1.61407
136770,King James I Academy Bishop Auckland,DL14 7JZ,6,54.6605441,-1.6708262
112393,Ullswater Community College,CA11 8NG,6,54.658914,-2.748115
137702,St John's Catholic School & Sixth Form College,DL14 6JT,6,54.6495212,-1.6923775
141499,Workington Academy,CA14 4EB,6,54.6411299,-3.5341387
138717,Woodham Academy,DL5 4AX,6,54.6266073,-1.5626168
111731,Northfield School and Sports College,TS22 5EG,6,54.6177884,-1.3092089
142273,Sacred Heart Catholic Secondary,TS10 1PJ,6,54.6118426,-1.0746984
148728,Rye Hills Academy,TS10 2HN,6,54.604215,-1.0559256
137251,Appleby Grammar School,CA16 6XU,6,54.583519,-2.495023
148335,Huntcliff School,TS12 1HJ,6,54.579241,-0.981247
144991,Staindrop Academy,DL2 3JU,6,54.5768452,-1.8125166
130908,Macmillan Academy,TS5 4AG,6,54.5659788,-1.2635345
142281,St Patrick's Catholic College,TS17 9DE,6,54.543451,-1.291944
147724,Laurence Jackson School,TS14 6RD,6,54.5407626,-1.0437392
146634,The Whitehaven Academy,CA28 8TY,6,54.539172,-3.558449
142174,Polam Hall School,DL1 5PA,6,54.518854,-1.561037
140949,Ingleby Manor Free School & Sixth Form,TS17 0FA,6,54.50912,-1.30349
139318,Conyers School,TS15 9ET,6,54.4964509,-1.348846
136525,Hurworth School,DL2 2JG,6,54.483059,-1.539003
137107,Kirkby Stephen Grammar School,CA17 4HA,6,54.4745383,-2.3523941
121668,Eskdale School,YO22 4HS,6,54.470711,-0.6043054
141930,Stokesley School,TS9 5AL,6,54.4666585,-1.1814024
145090,Richmond School,DL10 7BQ,6,54.407724,-1.723155
112379,The Lakes School,LA23 1HW,6,54.3919519,-2.9215478
136526,The Queen Katherine School,LA9 6PJ,6,54.338936,-2.734927
137269,Settlebeck School,LA10 5AL,6,54.322699,-2.520177
136671,Kirkbie Kendal School,LA9 7EQ,6,54.3172448,-2.7401441
121679,The Wensleydale School & Sixth Form,DL8 5HY,6,54.313249,-1.823847
147212,St Augustine's Catholic School - a Catholic voluntary academy,YO12 5LH,6,54.273777,-0.428941
121666,Thirsk School & Sixth Form College,YO7 1RZ,6,54.2235494,-1.3473398
112388,Millom School,LA18 5AB,6,54.213888,-3.269215
137338,Cartmel Priory CofE School,LA11 7SA,6,54.19827,-2.949908
112385,Ulverston Victoria High School,LA12 0EB,6,54.1896411,-3.0930626
121681,Malton School,YO17 7NH,6,54.1401663,-0.8100773
137412,Outwood Academy Ripon,HG4 2DE,6,54.1368278,-1.5399491
149987,Nidderdale High School,HG3 5HL,6,54.0890645,-1.7705383
121689,Settle College,BD24 0AU,6,54.0719804,-2.2851062
121687,King James's School,HG5 8EB,6,54.00486,-1.462169
121711,Joseph Rowntree School,YO32 4BZ,6,53.997462,-1.069045
143864,Vale of York Academy,YO30 6ZS,6,53.9762372,-1.0992321
119789,Saint Aidan's Church of England High School,FY6 0NP,6,53.917138,-2.960871
108085,Guiseley School,LS20 8DT,6,53.8705527,-1.7175108
119714,Millfield Science & Performing Arts College,FY5 5DG,6,53.867001,-3.000598
118076,The Market Weighton School,YO43 3JF,6,53.866949,-0.655848
107439,Bingley Grammar School,BD16 2RS,6,53.8553398,-1.8471472
139773,Leeds Jewish Free School,LS17 7TN,6,53.853692,-1.544375
134989,Pendle Vale College,BB9 8LF,6,53.8432975,-2.1956897
108058,Allerton Grange School,LS17 6SF,6,53.8404505,-1.5206257
146276,Marsden Heights Community College,BB9 0PR,6,53.826397,-2.222238
119800,St Cecilia's RC High School,PR3 2XA,6,53.8248015,-2.6060098
138087,Belle Vue Girls' Academy,BD9 6NA,6,53.819641,-1.8112244
149457,St Augustine's Roman Catholic High School,BB7 9JA,6,53.8161608,-2.4258516
148520,St Bede's and St Joseph's Catholic College,BD9 4BQ,6,53.8140151,-1.7861785
140204,Bradford Girls' Grammar School,BD9 6RB,6,53.803754,-1.796226
137065,Co-op Academy Leeds,LS9 7HD,6,53.8024496,-1.522067
148560,Trinity Academy Leeds,LS9 7QL,6,53.800393,-1.512477
108079,Pudsey Grammar School,LS28 7ND,6,53.8002888,-1.6607518
141028,Burnley High School,BB12 6NX,6,53.7955429,-2.2925126
136921,Cottingham High School and Sixth Form College,HU16 5PX,6,53.7875803,-0.4312233
141002,Dixons McMillan Academy,BD5 0JD,6,53.786943,-1.76026
147067,Bronte Girls' Academy,BD4 7EB,6,53.785853,-1.747323
121702,Selby High School Specialist School for the Arts and Science,YO8 4HT,6,53.7803422,-1.0792182
144307,Newland School for Girls,HU6 7RU,6,53.772271,-0.371379
119773,Moor Park High School and Sixth Form,PR1 6DT,6,53.7710176,-2.6935967
119707,Ashton Community Science College,PR2 1SL,6,53.769761,-2.7493415
148545,Trinity Academy Bradford,BD13 2AS,6,53.7645907,-1.8466411
143238,Brigshaw High School,WF10 2HR,6,53.7565374,-1.3800168
138082,Hull Trinity House Academy,HU3 1UP,6,53.756235,-0.348428
136788,The North Halifax Grammar School,HX2 9SU,6,53.7554821,-1.8807833
141165,Queen Elizabeth's Grammar School,BB2 6DF,6,53.753385,-2.495974
119788,St Bede's Catholic High School,FY8 4JL,6,53.7433923,-2.9544425
148922,The Hollins,BB5 2QY,6,53.738514,-2.352426
146936,Blackburn Central High School,BB2 3HJ,6,53.737827,-2.470531
119794,Hutton Church of England Grammar School,PR4 5SN,6,53.7333684,-2.7623907
107562,The Calder Learning Trust,HX7 5QN,6,53.732613,-1.975315
119784,Brownedge St  Mary's Catholic High School,PR5 6PB,6,53.7324661,-2.6604374
137383,Woodkirk Academy,WF3 1JQ,6,53.7306377,-1.5850215
137111,Lostock Hall Academy,PR5 5UR,6,53.72971,-2.680873
149162,Whitcliffe Mount,BD19 3AQ,6,53.726421,-1.728246
140326,The Halifax Academy,HX2 0BA,6,53.724216,-1.89359
137487,Batley Grammar School,WF17 0AD,6,53.722002,-1.640727
107564,Todmorden High School,OL14 7DG,6,53.7218952,-2.1113112
142406,Upper Batley High School,WF17 0BJ,6,53.720439,-1.635012
135961,Outwood Grange Academy,WF1 2PF,6,53.707699,-1.512458
138951,St Wilfrid's Catholic High School & Sixth Form College: A Voluntary Academy,WF7 6BD,6,53.6962256,-1.3644813
137444,Rastrick High School,HD6 3XB,6,53.6956074,-1.7926821
107775,Westborough High School,WF13 2JE,6,53.693857,-1.648554
139290,Academy@Worden,PR25 1RP,6,53.69296,-2.71213
140866,The Snaith School,DN14 9LB,6,53.6894999,-1.0383675
119767,Haslingden High School and Sixth Form,BB4 4EY,6,53.689422,-2.320291
119775,Balshaw's Church of England High School,PR25 3AH,6,53.686868,-2.68597
119816,St Mary's Catholic High School,PR25 1BS,6,53.6864001,-2.7102049
139500,The King's School,WF8 4JF,6,53.685616,-1.319052
118109,Baysgarth School,DN18 6AE,6,53.682082,-0.432878
146367,Castle Hall Academy,WF14 9PH,6,53.680144,-1.688757
107782,All Saints Catholic College,HD2 2JT,6,53.6777417,-1.7722902
139501,Carleton High School,WF8 3NW,6,53.6770901,-1.3027544
136462,Ossett Academy and Sixth Form College,WF5 0DG,6,53.6692203,-1.5784809
119753,Whitworth Community High School,OL12 8TS,6,53.6583216,-2.1804521
108271,Kettlethorpe High School,WF2 7EL,6,53.646109,-1.498918
138544,Albany Academy,PR7 3AY,6,53.6438018,-2.6209104
146327,Royds Hall A Share Academy,HD3 4HA,6,53.643726,-1.816177
149828,Meols Cop High School,PR8 6JS,6,53.638686,-2.974388
138706,King James's School,HD4 6SG,6,53.6285381,-1.7426569
147888,Newsome Academy,HD4 6JN,6,53.626359,-1.787827
138116,Campsmount Academy,DN6 9AS,6,53.625091,-1.18697
105837,Falinge Park High School,OL12 6LD,6,53.6247352,-2.1692743
137604,Greenbank High School,PR8 2LT,6,53.622689,-3.028672
105253,Turton School,BL7 9LT,6,53.6155106,-2.4127403
140091,Hollingworth Academy,OL16 3DR,6,53.6089217,-2.1043397
143773,Rivington and Blackrod High School,BL6 7RU,6,53.6057898,-2.5497713
146282,Burscough Priory Academy,L40 7RZ,6,53.6015035,-2.8470643
147369,Matthew Moss High School,OL11 3LU,6,53.6004682,-2.1907047
146970,Hazel Wood High School,BL9 7QT,6,53.5941324,-2.2729667
143812,Standish Community High School,WN6 0NX,6,53.592691,-2.672941
148049,St Gabriel's RC High School,BL9 0TZ,6,53.58903,-2.306492
137294,The Crompton House Church of England Academy,OL2 7HS,6,53.5819393,-2.1061166
106529,Shevington High School,WN6 8AB,6,53.579955,-2.684006
139277,Outwood Academy Brumby,DN16 1NT,6,53.577682,-0.644847
136277,Healing Academy,DN41 7QD,6,53.574581,-0.164326
137464,John Whitgift Academy,DN37 9EH,6,53.571474,-0.132796
137498,Maharishi Free School,L40 6JJ,6,53.56887,-2.786401
138018,St Bede's Catholic Voluntary Academy,DN16 2TF,6,53.568109,-0.644866
135963,Outwood Academy Adwick,DN6 7SF,6,53.567814,-1.1922515
134646,Ladybridge High School,BL3 4NG,6,53.567596,-2.474197
105844,Cardinal Langley Roman Catholic High School,M24 2GL,6,53.5645516,-2.1822092
142296,Little Lever School,BL3 1BT,6,53.562196,-2.3836307
143848,Unsworth Academy,BL9 8LP,6,53.5606771,-2.2703228
147077,King's Leadership Academy Bolton,BL3 3HL,6,53.556048,-2.442638
143772,Harper Green School,BL4 0DH,6,53.550478,-2.412335
146455,Horizon Community College,S70 6PD,6,53.549864,-1.4993027
144046,St James's Church of England High School,BL4 9RU,6,53.545353,-2.417944
105738,The Radclyffe School,OL9 0LS,6,53.545329,-2.153636
137612,Range High School,L37 2YN,6,53.5441105,-3.0819627
106537,St Peter's Catholic High School,WN5 8NU,6,53.5408867,-2.6994506
145723,Oasis Academy Leesbrook,OL4 5JE,6,53.53551,-2.08187
148561,Trinity Academy St. Edwards,S70 6FP,6,53.535203,-1.50139
148526,Outwood Academy Hindley,WN2 4LG,6,53.532777,-2.562685
136174,Co-op Academy Manchester,M9 0WQ,6,53.529679,-2.22249
137200,Humberston Academy,DN36 4TF,6,53.529225,-0.031297
119751,Up Holland High School,WN5 7AL,6,53.528836,-2.717804
148050,St Monica's RC High School,M25 1JH,6,53.5263482,-2.2664272
137742,South Axholme Academy,DN9 1BY,6,53.5243653,-0.8244288
138110,Hawkley Hall High School,WN3 5NY,6,53.5228017,-2.6347962
138233,Atherton High School,M46 0AY,6,53.521793,-2.493701
106266,Mossley Hollins High School,OL5 9DP,6,53.5197572,-2.0294725
140964,XP School,DN4 5NG,6,53.512121,-1.1190287
150009,Abraham Moss Community School,M8 5UF,6,53.5116064,-2.2350502
144327,Rainford High School,WA11 8NY,6,53.508409,-2.784497
140865,The McAuley Catholic High School,DN3 3QF,6,53.508117,-1.059881
146639,The Laurel Academy,S64 9SD,6,53.502722,-1.296386
136105,Manchester Communication Academy,M40 8NT,6,53.501948,-2.213933
140979,Kirk Balk Academy,S74 9HX,6,53.5008897,-1.4531758
104962,Holy Family Catholic High School,L23 4UL,6,53.500271,-3.007875
145848,Wath Academy,S63 7NW,6,53.4962904,-1.3429234
146793,The Albion Academy,M6 6QT,6,53.49519,-2.278564
137514,Chesterfield High School,L23 9YB,6,53.491445,-3.004561
105986,St Patrick's RC High School,M30 7JJ,6,53.4830626,-2.3669016
143141,Swinton Academy,S64 8JW,6,53.483048,-1.321412
106540,St Edmund Arrowsmith Catholic High School,WN4 9PF,6,53.4823377,-2.6401339
135864,Droylsden Academy,M43 6QD,6,53.482287,-2.157219
135071,Salford City Academy,M30 7PQ,6,53.478652,-2.379589
137783,Lowton Church of England High School,WA3 1DU,6,53.475368,-2.5468801
144364,Sir Thomas Wharton Academy,DN12 1HH,6,53.473599,-1.18586
136273,Audenshaw School,M34 5NB,6,53.4669709,-2.117984
148544,Co-op Academy Belle Vue,M12 4BA,6,53.463303,-2.188101
141884,Dean Trust Ardwick,M13 0LF,6,53.4625221,-2.2085399
149031,St Augustine of Canterbury Catholic Academy,WA11 9BB,6,53.4591108,-2.7068789
106370,Stretford High School,M32 0XA,6,53.457204,-2.293706
147157,Glossopdale School and Sixth Form,SK13 2DA,6,53.4557536,-1.9715633
111430,Culcheth High School,WA3 5HH,6,53.45506,-2.509115
136965,Flixton Girls School,M41 5DR,6,53.449681,-2.371094
142392,Somercotes Academy,LN11 7PN,6,53.446772,0.135914
142042,St Philip Howard Catholic Voluntary Academy,SK13 8DR,6,53.4420084,-1.9570995
145873,CHS South,M21 7SX,6,53.4369384,-2.2588506
142073,Irlam and Cadishead Academy,M44 5ZR,6,53.435556,-2.431166
141853,Winterhill School,S61 2BD,6,53.433884,-1.3988905
104688,Holly Lodge Girls' College,L12 7LE,6,53.428192,-2.91835
136141,The Sutton Academy,WA9 5AU,6,53.4281256,-2.7304781
136735,St Edward's College,L12 1LF,6,53.4244705,-2.9095673
131065,North Liverpool Academy,L5 0SQ,6,53.424101,-2.96851
136042,Maltby Academy,S66 8AB,6,53.4233892,-1.2097758
147942,St Anne's RC Voluntary Academy,SK4 2QP,6,53.422028,-2.171428
140646,Wickersley School and Sports College,S66 1JL,6,53.421931,-1.273508
137141,Serlby Park Academy,DN11 8EF,6,53.421105,-1.054187
139856,Hinde House 2-16 Academy,S5 6AG,6,53.420301,-1.432434
138123,Ashton-on-Mersey School,M33 5BP,6,53.4202302,-2.3396025
149936,Priestnall School,SK4 3HP,6,53.417805,-2.199577
140459,Oakwood High School,S60 2UH,6,53.416297,-1.345508
105581,The Barlow RC High School and Specialist Science College,M20 6BX,6,53.414766,-2.220174
106375,Sale High School,M33 3JR,6,53.4128844,-2.3043032
144326,Rainhill High School,L35 6NY,6,53.411555,-2.7524884
143260,Parrs Wood High School,M20 5PG,6,53.4094107,-2.2189891
139196,Beamont Collegiate Academy,WA2 8PX,6,53.407973,-2.588068
140547,Forge Valley School,S6 5HG,6,53.3986146,-1.52073
145864,Astrea Academy Sheffield,S3 9BE,6,53.3925375,-1.4686331
136780,St Anselm's College,CH43 1UQ,6,53.389953,-3.048212
145157,Penketh High School,WA5 2BY,6,53.387566,-2.649598
106376,Blessed Thomas Holford Catholic College,WA15 8HT,6,53.3874468,-2.3411221
111456,Cardinal Newman Catholic High School,WA4 1RX,6,53.386925,-2.56342
138614,Altrincham College,WA15 8QW,6,53.3838328,-2.3250793
144799,Sir Thomas Boteler Church of England High School,WA4 1JL,6,53.3799342,-2.5671682
105097,Ridgeway High School,CH43 9EB,6,53.379202,-3.072406
107140,King Edward VII School,S10 2PW,6,53.376298,-1.49588
138853,Woodchurch High School,CH49 7NG,6,53.3755579,-3.0756078
138337,All Saints' Catholic High School,S2 2RJ,6,53.373549,-1.457314
138850,St Margaret's Church of England Academy,L17 6AB,6,53.3685818,-2.9297353
137130,Prenton High School for Girls,CH42 6RR,6,53.367937,-3.026676
106139,Bramhall High School,SK7 2JT,6,53.367088,-2.153113
147533,Hope Valley College,S33 6SD,6,53.347428,-1.750171
140821,Newfield Secondary School,S8 9JP,6,53.346711,-1.459622
136331,Wales High School,S26 5QQ,6,53.3440021,-1.2737462
138545,Meadowhead School Academy Trust,S8 8BR,6,53.3248504,-1.4698225
111443,Wilmslow High School,SK9 1LZ,6,53.322129,-2.22998
138247,Outwood Academy Valley,S81 7EN,6,53.319553,-1.126855
112969,Dronfield Henry Fanshawe School,S18 2FZ,6,53.302677,-1.4661668
138002,Knutsford Academy,WA16 0EA,6,53.3010854,-2.3861217
138248,Outwood Academy Portland,S80 2SF,6,53.2942186,-1.1167508
111440,Helsby High School,WA6 0HY,6,53.2810333,-2.7508653
112958,Whittington Green School,S41 9LG,6,53.2718308,-1.4165807
140791,Tytherington School,SK10 2EE,6,53.2662593,-2.125298
149614,Weaverham High School,CW8 3HT,6,53.2595586,-2.582469
136968,John Spendluffe Foundation Technology College,LN13 9BL,6,53.258414,0.183054
136315,Queen Elizabeth's Grammar Alford - A Selective Academy,LN13 9HY,6,53.257733,0.168058
139139,All Hallows Catholic College,SK11 8LB,6,53.2566279,-2.1417869
137582,The Rudheath Senior Academy,CW9 7DT,6,53.25599,-2.484036
138148,Hartford Church of England High School,CW8 1LH,6,53.2478165,-2.537153
111450,St Nicholas Catholic High School,CW8 1JW,6,53.247409,-2.527699
145052,The Priory Pembroke Academy,LN3 4JP,6,53.2461536,-0.458526
148337,Outwood Academy Hasland Hall,S41 0LP,6,53.2177404,-1.406712
138411,Meden School,NG20 0QN,6,53.209536,-1.147884
135565,The Priory Academy LSST,LN5 8PW,6,53.208306,-0.546351
141581,The Banovallum School,LN9 6DA,6,53.2028677,-0.1103529
137449,Holmes Chapel Comprehensive School,CW4 7DX,6,53.197843,-2.368495
137135,Sir Robert Pattinson Academy,LN6 9AF,6,53.1865225,-0.5906496
143817,Queen's Park High School,CH4 7AE,6,53.1845029,-2.8849759
139343,The Catholic High School,CH4 7HS,6,53.180171,-2.89169
138783,King Edward VI Academy,PE23 5EW,6,53.1766228,0.0929971
138662,Eaton Bank Academy,CW12 1NT,6,53.174291,-2.204892
138757,Skegness Grammar School,PE25 2QS,6,53.1495023,0.3345216
148299,Highfields School,DE4 5NA,6,53.146768,-1.53586
112949,Tibshelf Community School,DE55 5LZ,6,53.1395577,-1.3527044
137628,The Joseph Whitaker School,NG21 0AG,6,53.1147325,-1.1229804
137981,Ashfield Comprehensive School,NG17 8HP,6,53.110663,-1.26956
111417,Ruskin Community High School,CW2 7JT,6,53.0903682,-2.4490898
148002,Endon High School,ST9 9EE,6,53.0735765,-2.1163259
142237,Shavington Academy,CW2 5DH,6,53.067507,-2.457849
138839,Sir William Robertson Academy,LN5 0PA,6,53.0673099,-0.5667429
136279,Brine Leas School,CW5 7DY,6,53.056525,-2.514383
137159,The National CofE Academy,NG15 7DB,6,53.044651,-1.213921
141259,The Ripley Academy,DE5 3JQ,6,53.043512,-1.392378
144768,The Suthers School,NG24 3NH,6,53.042369,-0.7739941
144182,Colonel Frank Seely Academy,NG14 6JZ,6,53.0408967,-1.085665
140470,Chesterton Community Sports College,ST5 7LP,6,53.0390469,-2.2543433
148185,The Giles Academy,PE22 9LD,6,53.029628,0.098509
148508,Moorside High School,ST9 0HP,6,53.027296,-2.071272
144487,Park Vale Academy,NG5 9AZ,6,53.008691,-1.176119
137213,Carre's Grammar School,NG34 7DD,6,53.002523,-0.410609
138810,Christ The King Voluntary Academy,NG5 7JZ,6,53.00063,-1.112901
138641,The Kimberley School,NG16 2NJ,6,52.998642,-1.255598
142278,Clayton Hall Academy,ST5 3DN,6,52.988804,-2.218908
136505,The Ecclesbourne School,DE56 4GS,6,52.985796,-1.491008
137085,Carlton Academy,NG4 3SH,6,52.9749014,-1.1035818
144558,Trentham Academy,ST4 8PQ,6,52.971068,-2.193013
138341,The Trinity Catholic School A Voluntary Academy,NG8 3EZ,6,52.9687814,-1.2070703
137798,Bluecoat Aspley Academy,NG8 5GY,6,52.968483,-1.191032
149376,Blythe Bridge High School,ST11 9PW,6,52.96827,-2.059472
134253,Djanogly City Academy,NG7 6ND,6,52.9673772,-1.1637758
137908,Saint John Houghton Catholic Voluntary Academy,DE7 4HX,6,52.9627144,-1.3281799
141176,Sir John Talbot's School,SY13 2BY,6,52.95832,-2.67625
137112,South Nottinghamshire Academy,NG12 2FQ,6,52.9455441,-1.0316733
138837,Bramcote College,NG9 3GA,6,52.941893,-1.24694
140984,Nottingham University Academy of Science and Technology,NG7 2PL,6,52.941372,-1.180675
138819,The Priory Belvoir Academy,NG13 0AX,6,52.9364766,-0.8084203
137621,Sheringham High School,NR26 8ND,6,52.936171,1.198143
145966,Friesland School,NG10 5AF,6,52.9227553,-1.3059288
136634,West Park School,DE21 7BT,6,52.9217989,-1.4136467
112991,Murray Park Community School,DE3 9LL,6,52.9187602,-1.5294219
148433,West Grantham Church of England Secondary Academy,NG31 7PX,6,52.907557,-0.662148
136624,Walton Academy,NG31 7JR,6,52.897694,-0.657764
145327,Derby Moor Spencer Academy,DE23 2FS,6,52.8957281,-1.5149933
138191,The South Wolds Academy & Sixth Form,NG12 5FF,6,52.873781,-1.08484
148639,Chellaston Academy,DE73 5UB,6,52.866238,-1.439252
139572,Fakenham Academy,NR21 9QT,6,52.8404734,0.844373
138820,Castle Donington College,DE74 2LN,6,52.839773,-1.337824
138964,East Leake Academy,LE12 6QN,6,52.8358942,-1.1728224
136414,The de Ferrers Academy,DE13 0LL,6,52.8297028,-1.6405466
142983,Sir Graham Balfour High School,ST16 1NR,6,52.8265805,-2.1243257
147505,North Walsham High School,NR28 9HZ,6,52.815885,1.394608
137553,The Weston Road Academy,ST18 0YG,6,52.8137057,-2.0762074
124392,Paget High School,DE14 3DR,6,52.787344,-1.659129
144069,The Pingle Academy,DE11 0QA,6,52.778033,-1.565866
141395,Stalham High School,NR12 9DG,6,52.7724411,1.5182072
141874,Charnwood College,LE11 4SQ,6,52.770027,-1.23956
138628,Long Field Spencer Academy,LE13 0BN,6,52.7607294,-0.9003984
140557,St Clement's High School,PE34 4LZ,6,52.7605561,0.2976225
136515,Springwood High School,PE30 4AW,6,52.759274,0.43291
138829,Reepham High School and College,NR10 4JT,6,52.758125,1.106054
137100,The Hart School,WS15 2UE,6,52.7563003,-1.9465738
148549,Ashby School,LE65 1DT,6,52.74846,-1.463347
139487,Taverham High School,NR8 6HP,6,52.6865894,1.1873034
142067,Holy Trinity Academy,TF2 9SQ,6,52.685292,-2.421085
139442,South Charnwood High School,LE67 9TB,6,52.681009,-1.302351
124408,King Edward VI School,WS14 9EE,6,52.6764026,-1.8172368
137340,Casterton College Rutland,PE9 4AT,6,52.673501,-0.517931
144988,Great Wyrley Academy,WS6 6LQ,6,52.6652133,-2.0189394
137600,Stamford Welland Academy,PE9 1HE,6,52.6609581,-0.4816688
138323,Brookvale Groby Learning Campus,LE6 0FP,6,52.65731,-1.23391
120281,Beaumont Leys School,LE4 0FL,6,52.6554321,-1.1591883
146196,English Martyrs' Catholic School,LE4 0FJ,6,52.652008,-1.158406
136186,Ormiston Victory Academy,NR5 0PX,6,52.649399,1.215518
146509,Mary Webb School and Science College,SY5 0TG,6,52.647373,-2.882539
138758,Acle Academy,NR13 3ER,6,52.642197,1.541285
137146,Landau Forte Academy,B79 8AH,6,52.64059,-1.6913
148546,Brook Mead Academy,LE3 5QS,6,52.635175,-1.14526
120292,Moat Community College,LE2 0TU,6,52.63336,-1.119599
148878,The City of Leicester College,LE5 6LN,6,52.626006,-1.062159
137969,Bosworth Academy,LE9 9JL,6,52.6254025,-1.2857584
120298,Fullhurst Community College,LE3 1AH,6,52.6234676,-1.1612855
142883,Great Yarmouth Charter Academy,NR30 4LS,6,52.619943,1.736445
139138,Aldersley High School,WV8 1RT,6,52.6173494,-2.1643196
141269,City of Norwich School An Ormiston Academy,NR4 6PP,6,52.612298,1.274673
145196,Downham Market Academy,PE38 9LL,6,52.6028337,0.3870261
104255,St Francis of Assisi Catholic College,WS9 0RN,6,52.5992032,-1.9095993
138136,The Arthur Terry School,B74 4RZ,6,52.589596,-1.836208
135263,Thomas Deacon Academy,PE1 2UW,6,52.5881295,-0.2357588
139891,St Edmund's Catholic Academy,WV3 9DU,6,52.58659,-2.1647
104387,St Matthias School,WV1 2BH,6,52.585362,-2.088661
137541,Lynn Grove Academy,NR31 8AP,6,52.5833514,1.708254
138374,West Walsall E-ACT Academy,WS2 9UA,6,52.582123,-2.0098
138606,Blue Coat Church of England Academy,WS1 2ND,6,52.5805621,-1.9769245
145271,Jack Hunt School,PE3 9PY,6,52.576345,-0.278916
135956,Grace Academy Darlaston,WS10 8QJ,6,52.5688835,-2.0482953
137707,The Streetly Academy,B74 2EX,6,52.568104,-1.882223
145019,Kingsbury School - A Specialist Science and Mathematics Academy,B78 2LF,6,52.5664941,-1.6842928
137830,Joseph Leckie Academy,WS5 4PG,6,52.5654908,-1.9815338
147881,Stuart Bathurst Catholic High School,WS10 9QS,6,52.5644451,-2.0070257
136908,Fairfax,B75 7JT,6,52.5621417,-1.7984368
136616,Wood Green Academy,WS10 9QU,6,52.5618494,-2.0030806
104395,Colton Hills Community School,WV4 5DG,6,52.5613718,-2.1364442
137053,Plantsbrook School,B72 1RB,6,52.5582584,-1.8191317
137082,Nene Park Academy,PE2 7EA,6,52.55497,-0.281802
139143,Bridgnorth Endowed School,WV16 4ER,6,52.5390674,-2.4197883
141343,Wombourne High School,WV5 8BJ,6,52.535768,-2.197848
137540,Kibworth Mead Academy,LE8 0LG,6,52.5348261,-0.9962373
137705,Beacon Hill Academy,DY3 1BP,6,52.533443,-2.109837
143641,Hampton Gardens Secondary School,PE7 8HR,6,52.532753,-0.258345
139311,Hobart High School,NR14 6JU,6,52.532556,1.479515
138527,Thomas Estley Community College,LE9 6PT,6,52.528978,-1.222641
139746,Hamstead Hall Academy,B20 1HL,6,52.5288049,-1.9421613
135234,George Salter Academy,B70 9UW,6,52.5252183,-2.0148749
140126,Bishop Milner Catholic College,DY1 3BY,6,52.519905,-2.102043
141836,St Thomas More Catholic School and Sixth Form College,CV10 7EX,6,52.517202,-1.48058
143413,Erdington Academy,B24 8RE,6,52.514499,-1.838218
144657,St James Academy,DY1 3JE,6,52.5134108,-2.0899005
139841,Broadway Academy,B20 3DP,6,52.513026,-1.895573
147182,West Bromwich Collegiate Academy,B70 7LE,6,52.509222,-1.998875
135306,Corby Business Academy,NN17 5EB,6,52.508601,-0.642085
137079,George Eliot Academy,CV11 4QP,6,52.508027,-1.4580944
134993,Sandwell Academy,B71 4LG,6,52.50705,-1.965917
137034,Holyhead School,B21 0HN,6,52.50523,-1.947641
137390,Pegasus Academy,DY1 2DU,6,52.5045041,-2.1064681
103509,Holte School,B19 2EP,6,52.500306,-1.89987
137773,Kingswinford Academy,DY6 7AD,6,52.499458,-2.166127
104018,Holly Lodge High School College of Science,B67 7JG,6,52.4980515,-1.987185
142759,Benjamin Britten Academy of Music and Mathematics,NR32 4PZ,6,52.4964264,1.7294106
144952,The Link Academy,DY2 0PB,6,52.493096,-2.088984
141325,The Crestwood School,DY6 8QG,6,52.4917672,-2.1511986
138059,Rockwood Academy,B8 3HG,6,52.490479,-1.845508
123564,The Community College,SY9 5AY,6,52.48846,-2.996231
146144,Old Buckenham High School,NR17 1RL,6,52.484465,1.043014
141668,Saltley Academy,B9 5RX,6,52.483943,-1.831983
144306,Tile Cross Academy,B33 9UF,6,52.4837475,-1.7708136
139957,Kingswood Secondary Academy,NN18 9NS,6,52.479359,-0.733338
137701,Oldbury Academy,B68 8NE,6,52.4788312,-2.0093042
142219,Waverley School,B9 5QA,6,52.475995,-1.831852
129342,Grace Academy Solihull,B37 5JS,6,52.4748143,-1.7545959
145120,Lordswood Boys' School,B17 8BJ,6,52.4722525,-1.9665596
144719,Holy Trinity Catholic School,B10 0AX,6,52.46781,-1.8644168
136152,King Edward VI Sheldon Heath Academy,B26 2RZ,6,52.466743,-1.7783538
141752,Ark Victoria Academy,B10 0HJ,6,52.462831,-1.845275
136213,Harborne Academy,B15 3JL,6,52.4617937,-1.938333
138150,Lutterworth College,LE17 4EW,6,52.4604,-1.208896
141712,Ridgewood High School,DY8 3NQ,6,52.457576,-2.17084
139047,Four Dwellings Academy,B32 1RJ,6,52.455734,-2.002899
139872,Redhill School,DY8 1JX,6,52.45407,-2.13964
137812,The Earls High School,B63 3SL,6,52.4536096,-2.0510246
139994,Yardleys School,B11 3EY,6,52.4491118,-1.84712
137377,Abbey College,PE26 1DG,6,52.447377,-0.09755
146124,Archbishop Ilsley Catholic School,B27 7XY,6,52.444866,-1.821833
136998,Bungay High School,NR35 1RW,6,52.4447378,1.4442219
136406,Ninestiles,B27 7QG,6,52.4392625,-1.8331996
140863,The University of Birmingham School,B29 6QU,6,52.436034,-1.9484507
141992,Cardinal Wiseman Catholic School,CV2 2AJ,6,52.435859,-1.452485
137858,Hall Green School,B28 0AA,6,52.43436,-1.850219
103560,Bishop Challoner Catholic College,B14 7EG,6,52.433694,-1.890244
143438,Dame Elizabeth Cadbury School,B30 1UL,6,52.427924,-1.942967
136204,The Thetford Academy,IP24 1LH,6,52.4267156,0.7554129
103486,Kings Heath Secondary School,B13 0QP,6,52.423743,-1.88174
139292,Caludon Castle School,CV2 5BD,6,52.414683,-1.45363
136126,Sidney Stringer Academy,CV1 5LY,6,52.4125161,-1.503009
137231,Light Hall School,B90 2PZ,6,52.399372,-1.83079
148521,Turves Green Boys' School,B31 4BS,6,52.3980382,-1.9713936
141939,Finham Park 2,CV4 9WT,6,52.3973176,-1.5731053
141105,Holy Trinity School,DY10 2BY,6,52.390084,-2.2392313
137547,Witchford Village College,CB6 2JA,6,52.389856,0.210644
136909,Heart of England School,CV7 7FW,6,52.3862374,-1.6485586
137092,Diss High School,IP22 4DH,6,52.3802241,1.1153045
135035,The Bewdley School,DY12 1BL,6,52.3727522,-2.30568
140371,Harris Church of England Academy,CV22 6EA,6,52.3622505,-1.2710657
142881,Rugby Free Secondary School,CV22 5PE,6,52.360706,-1.264632
137248,St Peter's School,PE29 7DD,6,52.339175,-0.185517
137305,St Ivo Academy,PE27 6RR,6,52.33099,-0.08536
136405,Wigmore School,HR6 9UW,6,52.3154,-2.857375
139961,Wrenn School,NN8 2DQ,6,52.2964786,-0.6888386
137614,Moulton School and Science College,NN3 7SD,6,52.288851,-0.856039
148128,Northstowe Learning Community,CB24 1DJ,6,52.2806639,0.0674709
136907,Myton School,CV34 6PJ,6,52.279925,-1.565383
137766,Campion School,CV31 1QH,6,52.2744674,-1.5162654
142747,Thomas Becket Catholic School,NN3 6HT,6,52.2706144,-0.8610311
136948,Weston Favell Academy,NN3 3EZ,6,52.2605961,-0.8470728
149285,St Benedict's Catholic School,IP32 6RH,6,52.257964,0.7041758
146489,Wollaston School,NN29 7PH,6,52.256826,-0.662636
136201,Malcolm Arnold Academy,NN2 6JW,6,52.2532083,-0.890827
124802,Thurston Community College,IP31 3PB,6,52.253119,0.807267
124856,King Edward VI CEVC School,IP33 3BH,6,52.25144,0.703568
138214,The Duston School,NN5 6XA,6,52.246957,-0.955622
140969,Sybil Andrews Academy,IP32 7QB,6,52.243724,0.760628
136897,The Chantry School,WR6 6QA,6,52.237581,-2.357128
136782,Thomas Mills High School & Sixth Form,IP13 9HE,6,52.2290652,1.3273463
139401,North Cambridge Academy,CB4 2JF,6,52.22431,0.130532
138858,Abbeyfield School,NN4 8BU,6,52.216008,-0.9037955
137087,Campion School,NN7 3QG,6,52.213105,-1.006091
135913,Tudor Grange Academy Worcester,WR3 8HN,6,52.212902,-2.205132
138107,Bishop Perowne CofE College,WR3 8LE,6,52.204748,-2.216811
137089,Caroline Chisholm School,NN4 6TP,6,52.1986689,-0.874268
136650,Coleridge Community College,CB1 3RJ,6,52.1936555,0.1527129
